"id","summary_title","coords","lat","lng","URI","apiURI"
"term-10445","Deccan","53.4485,-2.3558","53.4485","-2.3558","https://data.fitzmuseum.cam.ac.uk/id/terminology/term-10445","https://data.fitzmuseum.cam.ac.uk/api/v1/places/term-10445"
"term-10449","Agra","27.1753,78.0098","27.1753","78.0098","https://data.fitzmuseum.cam.ac.uk/id/terminology/term-10449","https://data.fitzmuseum.cam.ac.uk/api/v1/places/term-10449"
"term-10510","Sawankhalok","17.3147,99.8323","17.3147","99.8323","https://data.fitzmuseum.cam.ac.uk/id/terminology/term-10510","https://data.fitzmuseum.cam.ac.uk/api/v1/places/term-10510"
"term-106176","Cambridge (Cambs.)","52.1976,0.1392","52.1976","0.1392","https://data.fitzmuseum.cam.ac.uk/id/terminology/term-106176","https://data.fitzmuseum.cam.ac.uk/api/v1/places/term-106176"
"term-106216","London","51.5073,-0.1276","51.5073","-0.1276","https://data.fitzmuseum.cam.ac.uk/id/terminology/term-106216","https://data.fitzmuseum.cam.ac.uk/api/v1/places/term-106216"
"term-106233","Glasgow","55.861,-4.2489","55.861","-4.2489","https://data.fitzmuseum.cam.ac.uk/id/terminology/term-106233","https://data.fitzmuseum.cam.ac.uk/api/v1/places/term-106233"
"term-106290","Messina","38.1938,15.5542","38.1938","15.5542","https://data.fitzmuseum.cam.ac.uk/id/terminology/term-106290","https://data.fitzmuseum.cam.ac.uk/api/v1/places/term-106290"
"term-106294","unknown","-7.8345,112.4178","-7.8345","112.4178","https://data.fitzmuseum.cam.ac.uk/id/terminology/term-106294","https://data.fitzmuseum.cam.ac.uk/api/v1/places/term-106294"
"term-106296","Wye","51.7242,-2.6818","51.7242","-2.6818","https://data.fitzmuseum.cam.ac.uk/id/terminology/term-106296","https://data.fitzmuseum.cam.ac.uk/api/v1/places/term-106296"
"term-106304","Deutz","50.9368,6.973","50.9368","6.973","https://data.fitzmuseum.cam.ac.uk/id/terminology/term-106304","https://data.fitzmuseum.cam.ac.uk/api/v1/places/term-106304"
"term-106317","Sherborne","50.9487,-2.5198","50.9487","-2.5198","https://data.fitzmuseum.cam.ac.uk/id/terminology/term-106317","https://data.fitzmuseum.cam.ac.uk/api/v1/places/term-106317"
"term-106323","Lausanne","46.5218,6.6327","46.5218","6.6327","https://data.fitzmuseum.cam.ac.uk/id/terminology/term-106323","https://data.fitzmuseum.cam.ac.uk/api/v1/places/term-106323"
"term-106324","Perugia","43.107,12.403","43.107","12.403","https://data.fitzmuseum.cam.ac.uk/id/terminology/term-106324","https://data.fitzmuseum.cam.ac.uk/api/v1/places/term-106324"
"term-106328","Cologne","50.9384,6.96","50.9384","6.96","https://data.fitzmuseum.cam.ac.uk/id/terminology/term-106328","https://data.fitzmuseum.cam.ac.uk/api/v1/places/term-106328"
"term-106364","Lavenham","52.11,0.7979","52.11","0.7979","https://data.fitzmuseum.cam.ac.uk/id/terminology/term-106364","https://data.fitzmuseum.cam.ac.uk/api/v1/places/term-106364"
"term-106366","Rome","41.8933,12.4829","41.8933","12.4829","https://data.fitzmuseum.cam.ac.uk/id/terminology/term-106366","https://data.fitzmuseum.cam.ac.uk/api/v1/places/term-106366"
"term-106395","Fulham","51.4744,-0.2061","51.4744","-0.2061","https://data.fitzmuseum.cam.ac.uk/id/terminology/term-106395","https://data.fitzmuseum.cam.ac.uk/api/v1/places/term-106395"
"term-106398","Wareham","50.6869,-2.1098","50.6869","-2.1098","https://data.fitzmuseum.cam.ac.uk/id/terminology/term-106398","https://data.fitzmuseum.cam.ac.uk/api/v1/places/term-106398"
"term-106404","Verona","45.4385,10.9924","45.4385","10.9924","https://data.fitzmuseum.cam.ac.uk/id/terminology/term-106404","https://data.fitzmuseum.cam.ac.uk/api/v1/places/term-106404"
"term-106406","Essex","51.7705,0.4647","51.7705","0.4647","https://data.fitzmuseum.cam.ac.uk/id/terminology/term-106406","https://data.fitzmuseum.cam.ac.uk/api/v1/places/term-106406"
"term-106427","Devon","50.7241,-3.6608","50.7241","-3.6608","https://data.fitzmuseum.cam.ac.uk/id/terminology/term-106427","https://data.fitzmuseum.cam.ac.uk/api/v1/places/term-106427"
"term-106433","Zürich","47.3744,8.541","47.3744","8.541","https://data.fitzmuseum.cam.ac.uk/id/terminology/term-106433","https://data.fitzmuseum.cam.ac.uk/api/v1/places/term-106433"
"term-106442","Avignon","43.9492,4.8059","43.9492","4.8059","https://data.fitzmuseum.cam.ac.uk/id/terminology/term-106442","https://data.fitzmuseum.cam.ac.uk/api/v1/places/term-106442"
"term-106501","Amsterdam","52.3728,4.8936","52.3728","4.8936","https://data.fitzmuseum.cam.ac.uk/id/terminology/term-106501","https://data.fitzmuseum.cam.ac.uk/api/v1/places/term-106501"
"term-106508","Florence","43.7699,11.2556","43.7699","11.2556","https://data.fitzmuseum.cam.ac.uk/id/terminology/term-106508","https://data.fitzmuseum.cam.ac.uk/api/v1/places/term-106508"
"term-106509","Leipzig","51.3406,12.3747","51.3406","12.3747","https://data.fitzmuseum.cam.ac.uk/id/terminology/term-106509","https://data.fitzmuseum.cam.ac.uk/api/v1/places/term-106509"
"term-106511","Milan","45.4642,9.1896","45.4642","9.1896","https://data.fitzmuseum.cam.ac.uk/id/terminology/term-106511","https://data.fitzmuseum.cam.ac.uk/api/v1/places/term-106511"
"term-106516","Munich","48.1371,11.5754","48.1371","11.5754","https://data.fitzmuseum.cam.ac.uk/id/terminology/term-106516","https://data.fitzmuseum.cam.ac.uk/api/v1/places/term-106516"
"term-106518","Venice","45.4372,12.3346","45.4372","12.3346","https://data.fitzmuseum.cam.ac.uk/id/terminology/term-106518","https://data.fitzmuseum.cam.ac.uk/api/v1/places/term-106518"
"term-106526","Arundel","50.8545,-0.5648","50.8545","-0.5648","https://data.fitzmuseum.cam.ac.uk/id/terminology/term-106526","https://data.fitzmuseum.cam.ac.uk/api/v1/places/term-106526"
"term-106528","León","42.6341,-5.9714","42.6341","-5.9714","https://data.fitzmuseum.cam.ac.uk/id/terminology/term-106528","https://data.fitzmuseum.cam.ac.uk/api/v1/places/term-106528"
"term-106529","Mérida","38.9175,-6.3444","38.9175","-6.3444","https://data.fitzmuseum.cam.ac.uk/id/terminology/term-106529","https://data.fitzmuseum.cam.ac.uk/api/v1/places/term-106529"
"term-106531","Broughton","53.5687,-0.5435","53.5687","-0.5435","https://data.fitzmuseum.cam.ac.uk/id/terminology/term-106531","https://data.fitzmuseum.cam.ac.uk/api/v1/places/term-106531"
"term-106534","Santiago de Compostela","42.8804,-8.5459","42.8804","-8.5459","https://data.fitzmuseum.cam.ac.uk/id/terminology/term-106534","https://data.fitzmuseum.cam.ac.uk/api/v1/places/term-106534"
"term-106540","Bologna","44.4938,11.3426","44.4938","11.3426","https://data.fitzmuseum.cam.ac.uk/id/terminology/term-106540","https://data.fitzmuseum.cam.ac.uk/api/v1/places/term-106540"
"term-106541","Ferrara","44.7668,11.8279","44.7668","11.8279","https://data.fitzmuseum.cam.ac.uk/id/terminology/term-106541","https://data.fitzmuseum.cam.ac.uk/api/v1/places/term-106541"
"term-106544","New York","40.7127,-74.006","40.7127","-74.006","https://data.fitzmuseum.cam.ac.uk/id/terminology/term-106544","https://data.fitzmuseum.cam.ac.uk/api/v1/places/term-106544"
"term-106545","Naples","40.8359,14.2488","40.8359","14.2488","https://data.fitzmuseum.cam.ac.uk/id/terminology/term-106545","https://data.fitzmuseum.cam.ac.uk/api/v1/places/term-106545"
"term-106546","Turin","45.0678,7.6825","45.0678","7.6825","https://data.fitzmuseum.cam.ac.uk/id/terminology/term-106546","https://data.fitzmuseum.cam.ac.uk/api/v1/places/term-106546"
"term-106548","Chicago","41.8756,-87.6244","41.8756","-87.6244","https://data.fitzmuseum.cam.ac.uk/id/terminology/term-106548","https://data.fitzmuseum.cam.ac.uk/api/v1/places/term-106548"
"term-106549","Vienna","48.2084,16.3725","48.2084","16.3725","https://data.fitzmuseum.cam.ac.uk/id/terminology/term-106549","https://data.fitzmuseum.cam.ac.uk/api/v1/places/term-106549"
"term-106550","Washington","38.895,-77.0365","38.895","-77.0365","https://data.fitzmuseum.cam.ac.uk/id/terminology/term-106550","https://data.fitzmuseum.cam.ac.uk/api/v1/places/term-106550"
"term-106551","Berlin","52.517,13.3889","52.517","13.3889","https://data.fitzmuseum.cam.ac.uk/id/terminology/term-106551","https://data.fitzmuseum.cam.ac.uk/api/v1/places/term-106551"
"term-106556","Brunswick","52.2647,10.5236","52.2647","10.5236","https://data.fitzmuseum.cam.ac.uk/id/terminology/term-106556","https://data.fitzmuseum.cam.ac.uk/api/v1/places/term-106556"
"term-106561","The Hague","52.08,4.3113","52.08","4.3113","https://data.fitzmuseum.cam.ac.uk/id/terminology/term-106561","https://data.fitzmuseum.cam.ac.uk/api/v1/places/term-106561"
"term-106564","Doornspijk","52.4195,5.8209","52.4195","5.8209","https://data.fitzmuseum.cam.ac.uk/id/terminology/term-106564","https://data.fitzmuseum.cam.ac.uk/api/v1/places/term-106564"
"term-106565","Gent","51.0538,3.725","51.0538","3.725","https://data.fitzmuseum.cam.ac.uk/id/terminology/term-106565","https://data.fitzmuseum.cam.ac.uk/api/v1/places/term-106565"
"term-106567","Westminster","51.5004,-0.1265","51.5004","-0.1265","https://data.fitzmuseum.cam.ac.uk/id/terminology/term-106567","https://data.fitzmuseum.cam.ac.uk/api/v1/places/term-106567"
"term-106570","Alford","53.2615,0.1744","53.2615","0.1744","https://data.fitzmuseum.cam.ac.uk/id/terminology/term-106570","https://data.fitzmuseum.cam.ac.uk/api/v1/places/term-106570"
"term-106571","Ely","52.4019,0.2839","52.4019","0.2839","https://data.fitzmuseum.cam.ac.uk/id/terminology/term-106571","https://data.fitzmuseum.cam.ac.uk/api/v1/places/term-106571"
"term-106574","Brussels","50.8466,4.3517","50.8466","4.3517","https://data.fitzmuseum.cam.ac.uk/id/terminology/term-106574","https://data.fitzmuseum.cam.ac.uk/api/v1/places/term-106574"
"term-106575","Carcassonne","43.213,2.3491","43.213","2.3491","https://data.fitzmuseum.cam.ac.uk/id/terminology/term-106575","https://data.fitzmuseum.cam.ac.uk/api/v1/places/term-106575"
"term-106576","Folkestone","51.0791,1.1794","51.0791","1.1794","https://data.fitzmuseum.cam.ac.uk/id/terminology/term-106576","https://data.fitzmuseum.cam.ac.uk/api/v1/places/term-106576"
"term-106578","Rouen","49.4405,1.094","49.4405","1.094","https://data.fitzmuseum.cam.ac.uk/id/terminology/term-106578","https://data.fitzmuseum.cam.ac.uk/api/v1/places/term-106578"
"term-106581","Münster (Westf.)","51.9564,7.6358","51.9564","7.6358","https://data.fitzmuseum.cam.ac.uk/id/terminology/term-106581","https://data.fitzmuseum.cam.ac.uk/api/v1/places/term-106581"
"term-106591","Winchester","51.0613,-1.3132","51.0613","-1.3132","https://data.fitzmuseum.cam.ac.uk/id/terminology/term-106591","https://data.fitzmuseum.cam.ac.uk/api/v1/places/term-106591"
"term-106597","Turkey","38.9598,34.925","38.9598","34.925","https://data.fitzmuseum.cam.ac.uk/id/terminology/term-106597","https://data.fitzmuseum.cam.ac.uk/api/v1/places/term-106597"
"term-106599","Groningen","53.2191,6.568","53.2191","6.568","https://data.fitzmuseum.cam.ac.uk/id/terminology/term-106599","https://data.fitzmuseum.cam.ac.uk/api/v1/places/term-106599"
"term-106604","Marseille","43.2962,5.37","43.2962","5.37","https://data.fitzmuseum.cam.ac.uk/id/terminology/term-106604","https://data.fitzmuseum.cam.ac.uk/api/v1/places/term-106604"
"term-106614","Dieppe","49.9246,1.0791","49.9246","1.0791","https://data.fitzmuseum.cam.ac.uk/id/terminology/term-106614","https://data.fitzmuseum.cam.ac.uk/api/v1/places/term-106614"
"term-106615","Bath","51.3814,-2.3597","51.3814","-2.3597","https://data.fitzmuseum.cam.ac.uk/id/terminology/term-106615","https://data.fitzmuseum.cam.ac.uk/api/v1/places/term-106615"
"term-106619","Rye","46.8713,5.4298","46.8713","5.4298","https://data.fitzmuseum.cam.ac.uk/id/terminology/term-106619","https://data.fitzmuseum.cam.ac.uk/api/v1/places/term-106619"
"term-106622","Portsmouth","50.8037,-1.0756","50.8037","-1.0756","https://data.fitzmuseum.cam.ac.uk/id/terminology/term-106622","https://data.fitzmuseum.cam.ac.uk/api/v1/places/term-106622"
"term-106626","Leiden","52.1518,4.4811","52.1518","4.4811","https://data.fitzmuseum.cam.ac.uk/id/terminology/term-106626","https://data.fitzmuseum.cam.ac.uk/api/v1/places/term-106626"
"term-106627","Utrecht","52.081,5.1277","52.081","5.1277","https://data.fitzmuseum.cam.ac.uk/id/terminology/term-106627","https://data.fitzmuseum.cam.ac.uk/api/v1/places/term-106627"
"term-106629","Italy","42.6384,12.6743","42.6384","12.6743","https://data.fitzmuseum.cam.ac.uk/id/terminology/term-106629","https://data.fitzmuseum.cam.ac.uk/api/v1/places/term-106629"
"term-106643","Durham","35.9967,-78.9018","35.9967","-78.9018","https://data.fitzmuseum.cam.ac.uk/id/terminology/term-106643","https://data.fitzmuseum.cam.ac.uk/api/v1/places/term-106643"
"term-106646","Tokyo","35.6828,139.7595","35.6828","139.7595","https://data.fitzmuseum.cam.ac.uk/id/terminology/term-106646","https://data.fitzmuseum.cam.ac.uk/api/v1/places/term-106646"
"term-106652","Hamburg","53.5503,10.0007","53.5503","10.0007","https://data.fitzmuseum.cam.ac.uk/id/terminology/term-106652","https://data.fitzmuseum.cam.ac.uk/api/v1/places/term-106652"
"term-106653","Warwickshire","52.3213,-1.5537","52.3213","-1.5537","https://data.fitzmuseum.cam.ac.uk/id/terminology/term-106653","https://data.fitzmuseum.cam.ac.uk/api/v1/places/term-106653"
"term-106656","Greenwich","51.4821,-0.0045","51.4821","-0.0045","https://data.fitzmuseum.cam.ac.uk/id/terminology/term-106656","https://data.fitzmuseum.cam.ac.uk/api/v1/places/term-106656"
"term-106658","Spain","39.3261,-4.838","39.3261","-4.838","https://data.fitzmuseum.cam.ac.uk/id/terminology/term-106658","https://data.fitzmuseum.cam.ac.uk/api/v1/places/term-106658"
"term-106663","Bern","46.9483,7.4515","46.9483","7.4515","https://data.fitzmuseum.cam.ac.uk/id/terminology/term-106663","https://data.fitzmuseum.cam.ac.uk/api/v1/places/term-106663"
"term-106664","Switzerland","46.7986,8.232","46.7986","8.232","https://data.fitzmuseum.cam.ac.uk/id/terminology/term-106664","https://data.fitzmuseum.cam.ac.uk/api/v1/places/term-106664"
"term-106665","Netherlands","52.2289,5.3215","52.2289","5.3215","https://data.fitzmuseum.cam.ac.uk/id/terminology/term-106665","https://data.fitzmuseum.cam.ac.uk/api/v1/places/term-106665"
"term-106666","Greece","38.9954,21.9877","38.9954","21.9877","https://data.fitzmuseum.cam.ac.uk/id/terminology/term-106666","https://data.fitzmuseum.cam.ac.uk/api/v1/places/term-106666"
"term-106680","Guildford","51.2356,-0.5732","51.2356","-0.5732","https://data.fitzmuseum.cam.ac.uk/id/terminology/term-106680","https://data.fitzmuseum.cam.ac.uk/api/v1/places/term-106680"
"term-106697","Gloucester","51.8654,-2.2458","51.8654","-2.2458","https://data.fitzmuseum.cam.ac.uk/id/terminology/term-106697","https://data.fitzmuseum.cam.ac.uk/api/v1/places/term-106697"
"term-106699","Saint-Cloud","48.8437,2.2193","48.8437","2.2193","https://data.fitzmuseum.cam.ac.uk/id/terminology/term-106699","https://data.fitzmuseum.cam.ac.uk/api/v1/places/term-106699"
"term-106700","Bristol","51.4538,-2.5973","51.4538","-2.5973","https://data.fitzmuseum.cam.ac.uk/id/terminology/term-106700","https://data.fitzmuseum.cam.ac.uk/api/v1/places/term-106700"
"term-106702","Southwold","52.3267,1.6795","52.3267","1.6795","https://data.fitzmuseum.cam.ac.uk/id/terminology/term-106702","https://data.fitzmuseum.cam.ac.uk/api/v1/places/term-106702"
"term-106706","Watford","51.6554,-0.3957","51.6554","-0.3957","https://data.fitzmuseum.cam.ac.uk/id/terminology/term-106706","https://data.fitzmuseum.cam.ac.uk/api/v1/places/term-106706"
"term-106707","Gravesend","51.4425,0.3694","51.4425","0.3694","https://data.fitzmuseum.cam.ac.uk/id/terminology/term-106707","https://data.fitzmuseum.cam.ac.uk/api/v1/places/term-106707"
"term-106709","Cornwall","50.4433,-4.6247","50.4433","-4.6247","https://data.fitzmuseum.cam.ac.uk/id/terminology/term-106709","https://data.fitzmuseum.cam.ac.uk/api/v1/places/term-106709"
"term-106714","Dunwich","52.2769,1.6285","52.2769","1.6285","https://data.fitzmuseum.cam.ac.uk/id/terminology/term-106714","https://data.fitzmuseum.cam.ac.uk/api/v1/places/term-106714"
"term-106715","Antwerp","51.2211,4.3997","51.2211","4.3997","https://data.fitzmuseum.cam.ac.uk/id/terminology/term-106715","https://data.fitzmuseum.cam.ac.uk/api/v1/places/term-106715"
"term-106717","St. David's","51.8813,-5.2662","51.8813","-5.2662","https://data.fitzmuseum.cam.ac.uk/id/terminology/term-106717","https://data.fitzmuseum.cam.ac.uk/api/v1/places/term-106717"
"term-106720","Watchet","51.1789,-3.3308","51.1789","-3.3308","https://data.fitzmuseum.cam.ac.uk/id/terminology/term-106720","https://data.fitzmuseum.cam.ac.uk/api/v1/places/term-106720"
"term-106721","Rotherhithe","51.5003,-0.0436","51.5003","-0.0436","https://data.fitzmuseum.cam.ac.uk/id/terminology/term-106721","https://data.fitzmuseum.cam.ac.uk/api/v1/places/term-106721"
"term-106724","Lowestoft","52.4766,1.7538","52.4766","1.7538","https://data.fitzmuseum.cam.ac.uk/id/terminology/term-106724","https://data.fitzmuseum.cam.ac.uk/api/v1/places/term-106724"
"term-106727","Poitiers","46.5803,0.3402","46.5803","0.3402","https://data.fitzmuseum.cam.ac.uk/id/terminology/term-106727","https://data.fitzmuseum.cam.ac.uk/api/v1/places/term-106727"
"term-106729","King's Lynn","52.7539,0.3955","52.7539","0.3955","https://data.fitzmuseum.cam.ac.uk/id/terminology/term-106729","https://data.fitzmuseum.cam.ac.uk/api/v1/places/term-106729"
"term-106730","Vicenza","45.6349,11.4064","45.6349","11.4064","https://data.fitzmuseum.cam.ac.uk/id/terminology/term-106730","https://data.fitzmuseum.cam.ac.uk/api/v1/places/term-106730"
"term-106746","Arles","43.6776,4.631","43.6776","4.631","https://data.fitzmuseum.cam.ac.uk/id/terminology/term-106746","https://data.fitzmuseum.cam.ac.uk/api/v1/places/term-106746"
"term-106747","Hildesheim","52.1522,9.9513","52.1522","9.9513","https://data.fitzmuseum.cam.ac.uk/id/terminology/term-106747","https://data.fitzmuseum.cam.ac.uk/api/v1/places/term-106747"
"term-106753","Perpignan","42.6985,2.8953","42.6985","2.8953","https://data.fitzmuseum.cam.ac.uk/id/terminology/term-106753","https://data.fitzmuseum.cam.ac.uk/api/v1/places/term-106753"
"term-106755","Narbonne","43.1838,3.0042","43.1838","3.0042","https://data.fitzmuseum.cam.ac.uk/id/terminology/term-106755","https://data.fitzmuseum.cam.ac.uk/api/v1/places/term-106755"
"term-106758","Clermont-Ferrand","45.7775,3.0819","45.7775","3.0819","https://data.fitzmuseum.cam.ac.uk/id/terminology/term-106758","https://data.fitzmuseum.cam.ac.uk/api/v1/places/term-106758"
"term-106768","Frankfurt","50.1106,8.6821","50.1106","8.6821","https://data.fitzmuseum.cam.ac.uk/id/terminology/term-106768","https://data.fitzmuseum.cam.ac.uk/api/v1/places/term-106768"
"term-106773","Richmond (Yorks.)","-29.0587,153.3246","-29.0587","153.3246","https://data.fitzmuseum.cam.ac.uk/id/terminology/term-106773","https://data.fitzmuseum.cam.ac.uk/api/v1/places/term-106773"
"term-106781","Hague","46.0282,-99.9982","46.0282","-99.9982","https://data.fitzmuseum.cam.ac.uk/id/terminology/term-106781","https://data.fitzmuseum.cam.ac.uk/api/v1/places/term-106781"
"term-106783","Philadelphia (Lydia)","39.9943,-75.1467","39.9943","-75.1467","https://data.fitzmuseum.cam.ac.uk/id/terminology/term-106783","https://data.fitzmuseum.cam.ac.uk/api/v1/places/term-106783"
"term-106787","India","22.3511,78.6677","22.3511","78.6677","https://data.fitzmuseum.cam.ac.uk/id/terminology/term-106787","https://data.fitzmuseum.cam.ac.uk/api/v1/places/term-106787"
"term-106815","Weimar","50.981,11.3297","50.981","11.3297","https://data.fitzmuseum.cam.ac.uk/id/terminology/term-106815","https://data.fitzmuseum.cam.ac.uk/api/v1/places/term-106815"
"term-106821","New Haven","41.3082,-72.9251","41.3082","-72.9251","https://data.fitzmuseum.cam.ac.uk/id/terminology/term-106821","https://data.fitzmuseum.cam.ac.uk/api/v1/places/term-106821"
"term-106824","Sutton","30.5122,-100.5384","30.5122","-100.5384","https://data.fitzmuseum.cam.ac.uk/id/terminology/term-106824","https://data.fitzmuseum.cam.ac.uk/api/v1/places/term-106824"
"term-106826","Winchcombe","51.9528,-1.9675","51.9528","-1.9675","https://data.fitzmuseum.cam.ac.uk/id/terminology/term-106826","https://data.fitzmuseum.cam.ac.uk/api/v1/places/term-106826"
"term-106831","Castor","52.5723,-0.3405","52.5723","-0.3405","https://data.fitzmuseum.cam.ac.uk/id/terminology/term-106831","https://data.fitzmuseum.cam.ac.uk/api/v1/places/term-106831"
"term-106838","Newcastle","54.9738,-1.6132","54.9738","-1.6132","https://data.fitzmuseum.cam.ac.uk/id/terminology/term-106838","https://data.fitzmuseum.cam.ac.uk/api/v1/places/term-106838"
"term-106848","Mallorca","39.6134,2.8804","39.6134","2.8804","https://data.fitzmuseum.cam.ac.uk/id/terminology/term-106848","https://data.fitzmuseum.cam.ac.uk/api/v1/places/term-106848"
"term-106849","Montpellier","43.6112,3.8767","43.6112","3.8767","https://data.fitzmuseum.cam.ac.uk/id/terminology/term-106849","https://data.fitzmuseum.cam.ac.uk/api/v1/places/term-106849"
"term-106850","Rennes","48.1113,-1.68","48.1113","-1.68","https://data.fitzmuseum.cam.ac.uk/id/terminology/term-106850","https://data.fitzmuseum.cam.ac.uk/api/v1/places/term-106850"
"term-106860","Aix-en-Provence","43.5298,5.4475","43.5298","5.4475","https://data.fitzmuseum.cam.ac.uk/id/terminology/term-106860","https://data.fitzmuseum.cam.ac.uk/api/v1/places/term-106860"
"term-106866","Wapping","51.5054,-0.0587","51.5054","-0.0587","https://data.fitzmuseum.cam.ac.uk/id/terminology/term-106866","https://data.fitzmuseum.cam.ac.uk/api/v1/places/term-106866"
"term-106868","Lymington","50.7584,-1.5427","50.7584","-1.5427","https://data.fitzmuseum.cam.ac.uk/id/terminology/term-106868","https://data.fitzmuseum.cam.ac.uk/api/v1/places/term-106868"
"term-106869","Ramsgate","51.3335,1.4196","51.3335","1.4196","https://data.fitzmuseum.cam.ac.uk/id/terminology/term-106869","https://data.fitzmuseum.cam.ac.uk/api/v1/places/term-106869"
"term-106870","Ipswich","52.0579,1.1526","52.0579","1.1526","https://data.fitzmuseum.cam.ac.uk/id/terminology/term-106870","https://data.fitzmuseum.cam.ac.uk/api/v1/places/term-106870"
"term-106873","Fontainebleau","48.4049,2.7016","48.4049","2.7016","https://data.fitzmuseum.cam.ac.uk/id/terminology/term-106873","https://data.fitzmuseum.cam.ac.uk/api/v1/places/term-106873"
"term-106874","Nice","43.7009,7.2684","43.7009","7.2684","https://data.fitzmuseum.cam.ac.uk/id/terminology/term-106874","https://data.fitzmuseum.cam.ac.uk/api/v1/places/term-106874"
"term-106877","Etretat","49.7075,0.2032","49.7075","0.2032","https://data.fitzmuseum.cam.ac.uk/id/terminology/term-106877","https://data.fitzmuseum.cam.ac.uk/api/v1/places/term-106877"
"term-106879","Hastings","50.8554,0.5825","50.8554","0.5825","https://data.fitzmuseum.cam.ac.uk/id/terminology/term-106879","https://data.fitzmuseum.cam.ac.uk/api/v1/places/term-106879"
"term-106880","Giverny","49.0761,1.5271","49.0761","1.5271","https://data.fitzmuseum.cam.ac.uk/id/terminology/term-106880","https://data.fitzmuseum.cam.ac.uk/api/v1/places/term-106880"
"term-106883","Beauvais","49.4301,2.0823","49.4301","2.0823","https://data.fitzmuseum.cam.ac.uk/id/terminology/term-106883","https://data.fitzmuseum.cam.ac.uk/api/v1/places/term-106883"
"term-106885","Port-Marly","48.8788,2.1151","48.8788","2.1151","https://data.fitzmuseum.cam.ac.uk/id/terminology/term-106885","https://data.fitzmuseum.cam.ac.uk/api/v1/places/term-106885"
"term-106887","Pontoise","49.0509,2.1008","49.0509","2.1008","https://data.fitzmuseum.cam.ac.uk/id/terminology/term-106887","https://data.fitzmuseum.cam.ac.uk/api/v1/places/term-106887"
"term-106888","Eragny","49.0192,2.0911","49.0192","2.0911","https://data.fitzmuseum.cam.ac.uk/id/terminology/term-106888","https://data.fitzmuseum.cam.ac.uk/api/v1/places/term-106888"
"term-106889","Montfoucault","character(0)","NULL","NULL","https://data.fitzmuseum.cam.ac.uk/id/terminology/term-106889","https://data.fitzmuseum.cam.ac.uk/api/v1/places/term-106889"
"term-106892","Hanover","52.3745,9.7386","52.3745","9.7386","https://data.fitzmuseum.cam.ac.uk/id/terminology/term-106892","https://data.fitzmuseum.cam.ac.uk/api/v1/places/term-106892"
"term-106901","Chaville","48.8087,2.1883","48.8087","2.1883","https://data.fitzmuseum.cam.ac.uk/id/terminology/term-106901","https://data.fitzmuseum.cam.ac.uk/api/v1/places/term-106901"
"term-106902","Nottingham","52.9534,-1.1496","52.9534","-1.1496","https://data.fitzmuseum.cam.ac.uk/id/terminology/term-106902","https://data.fitzmuseum.cam.ac.uk/api/v1/places/term-106902"
"term-106919","Barcelona","41.3829,2.1774","41.3829","2.1774","https://data.fitzmuseum.cam.ac.uk/id/terminology/term-106919","https://data.fitzmuseum.cam.ac.uk/api/v1/places/term-106919"
"term-106920","Godstone","51.2219,-0.0565","51.2219","-0.0565","https://data.fitzmuseum.cam.ac.uk/id/terminology/term-106920","https://data.fitzmuseum.cam.ac.uk/api/v1/places/term-106920"
"term-106922","Lisbon","38.7078,-9.1366","38.7078","-9.1366","https://data.fitzmuseum.cam.ac.uk/id/terminology/term-106922","https://data.fitzmuseum.cam.ac.uk/api/v1/places/term-106922"
"term-106923","Vernet-les-Bains","42.5485,2.3879","42.5485","2.3879","https://data.fitzmuseum.cam.ac.uk/id/terminology/term-106923","https://data.fitzmuseum.cam.ac.uk/api/v1/places/term-106923"
"term-106924","Libourne","44.9134,-0.2427","44.9134","-0.2427","https://data.fitzmuseum.cam.ac.uk/id/terminology/term-106924","https://data.fitzmuseum.cam.ac.uk/api/v1/places/term-106924"
"term-106925","Chambolle-Musigny","47.1864,4.9533","47.1864","4.9533","https://data.fitzmuseum.cam.ac.uk/id/terminology/term-106925","https://data.fitzmuseum.cam.ac.uk/api/v1/places/term-106925"
"term-106926","St Jean-De-Luz","43.3871,-1.6636","43.3871","-1.6636","https://data.fitzmuseum.cam.ac.uk/id/terminology/term-106926","https://data.fitzmuseum.cam.ac.uk/api/v1/places/term-106926"
"term-106931","Ronda","36.7421,-5.1666","36.7421","-5.1666","https://data.fitzmuseum.cam.ac.uk/id/terminology/term-106931","https://data.fitzmuseum.cam.ac.uk/api/v1/places/term-106931"
"term-106933","Rotterdam","51.9244,4.4778","51.9244","4.4778","https://data.fitzmuseum.cam.ac.uk/id/terminology/term-106933","https://data.fitzmuseum.cam.ac.uk/api/v1/places/term-106933"
"term-106934","Boccadasse","44.3898,8.9748","44.3898","8.9748","https://data.fitzmuseum.cam.ac.uk/id/terminology/term-106934","https://data.fitzmuseum.cam.ac.uk/api/v1/places/term-106934"
"term-106935","Wiesbaden","50.082,8.2417","50.082","8.2417","https://data.fitzmuseum.cam.ac.uk/id/terminology/term-106935","https://data.fitzmuseum.cam.ac.uk/api/v1/places/term-106935"
"term-106936","Brentford","51.4864,-0.3217","51.4864","-0.3217","https://data.fitzmuseum.cam.ac.uk/id/terminology/term-106936","https://data.fitzmuseum.cam.ac.uk/api/v1/places/term-106936"
"term-106938","Normandy","49.0678,0.3139","49.0678","0.3139","https://data.fitzmuseum.cam.ac.uk/id/terminology/term-106938","https://data.fitzmuseum.cam.ac.uk/api/v1/places/term-106938"
"term-106939","Malmaison","53.4083,-2.9975","53.4083","-2.9975","https://data.fitzmuseum.cam.ac.uk/id/terminology/term-106939","https://data.fitzmuseum.cam.ac.uk/api/v1/places/term-106939"
"term-106944","Liverpool","53.4072,-2.9917","53.4072","-2.9917","https://data.fitzmuseum.cam.ac.uk/id/terminology/term-106944","https://data.fitzmuseum.cam.ac.uk/api/v1/places/term-106944"
"term-106949","Cassis","43.214,5.5396","43.214","5.5396","https://data.fitzmuseum.cam.ac.uk/id/terminology/term-106949","https://data.fitzmuseum.cam.ac.uk/api/v1/places/term-106949"
"term-106950","Amiens","49.8942,2.2957","49.8942","2.2957","https://data.fitzmuseum.cam.ac.uk/id/terminology/term-106950","https://data.fitzmuseum.cam.ac.uk/api/v1/places/term-106950"
"term-106954","Douarnenez","48.0944,-4.3311","48.0944","-4.3311","https://data.fitzmuseum.cam.ac.uk/id/terminology/term-106954","https://data.fitzmuseum.cam.ac.uk/api/v1/places/term-106954"
"term-106955","Portofino","44.3037,9.2093","44.3037","9.2093","https://data.fitzmuseum.cam.ac.uk/id/terminology/term-106955","https://data.fitzmuseum.cam.ac.uk/api/v1/places/term-106955"
"term-106956","Glen Moriston","55.7612,-4.1538","55.7612","-4.1538","https://data.fitzmuseum.cam.ac.uk/id/terminology/term-106956","https://data.fitzmuseum.cam.ac.uk/api/v1/places/term-106956"
"term-106957","Vannes","47.6587,-2.7599","47.6587","-2.7599","https://data.fitzmuseum.cam.ac.uk/id/terminology/term-106957","https://data.fitzmuseum.cam.ac.uk/api/v1/places/term-106957"
"term-106958","Lake Como","45.9918,9.2649","45.9918","9.2649","https://data.fitzmuseum.cam.ac.uk/id/terminology/term-106958","https://data.fitzmuseum.cam.ac.uk/api/v1/places/term-106958"
"term-106963","Souillac","44.898,1.4694","44.898","1.4694","https://data.fitzmuseum.cam.ac.uk/id/terminology/term-106963","https://data.fitzmuseum.cam.ac.uk/api/v1/places/term-106963"
"term-106964","Boston (Lincs)","52.9612,-0.1732","52.9612","-0.1732","https://data.fitzmuseum.cam.ac.uk/id/terminology/term-106964","https://data.fitzmuseum.cam.ac.uk/api/v1/places/term-106964"
"term-106965","Genoa","44.4073,8.9339","44.4073","8.9339","https://data.fitzmuseum.cam.ac.uk/id/terminology/term-106965","https://data.fitzmuseum.cam.ac.uk/api/v1/places/term-106965"
"term-106968","L' Escoutay","44.5341,4.6134","44.5341","4.6134","https://data.fitzmuseum.cam.ac.uk/id/terminology/term-106968","https://data.fitzmuseum.cam.ac.uk/api/v1/places/term-106968"
"term-106972","Oslo","59.9133,10.739","59.9133","10.739","https://data.fitzmuseum.cam.ac.uk/id/terminology/term-106972","https://data.fitzmuseum.cam.ac.uk/api/v1/places/term-106972"
"term-106974","Newlyn","50.1063,-5.55","50.1063","-5.55","https://data.fitzmuseum.cam.ac.uk/id/terminology/term-106974","https://data.fitzmuseum.cam.ac.uk/api/v1/places/term-106974"
"term-106976","Lavington Common","50.9601,-0.652","50.9601","-0.652","https://data.fitzmuseum.cam.ac.uk/id/terminology/term-106976","https://data.fitzmuseum.cam.ac.uk/api/v1/places/term-106976"
"term-106980","Dijon","47.3216,5.0415","47.3216","5.0415","https://data.fitzmuseum.cam.ac.uk/id/terminology/term-106980","https://data.fitzmuseum.cam.ac.uk/api/v1/places/term-106980"
"term-106983","Chantilly","49.1932,2.4637","49.1932","2.4637","https://data.fitzmuseum.cam.ac.uk/id/terminology/term-106983","https://data.fitzmuseum.cam.ac.uk/api/v1/places/term-106983"
"term-106987","Edinburgh","55.9533,-3.1884","55.9533","-3.1884","https://data.fitzmuseum.cam.ac.uk/id/terminology/term-106987","https://data.fitzmuseum.cam.ac.uk/api/v1/places/term-106987"
"term-106993","Cumbria","54.6143,-2.9421","54.6143","-2.9421","https://data.fitzmuseum.cam.ac.uk/id/terminology/term-106993","https://data.fitzmuseum.cam.ac.uk/api/v1/places/term-106993"
"term-106998","Chelsea","51.4875,-0.1687","51.4875","-0.1687","https://data.fitzmuseum.cam.ac.uk/id/terminology/term-106998","https://data.fitzmuseum.cam.ac.uk/api/v1/places/term-106998"
"term-106999","Dielette","49.5504,-1.859","49.5504","-1.859","https://data.fitzmuseum.cam.ac.uk/id/terminology/term-106999","https://data.fitzmuseum.cam.ac.uk/api/v1/places/term-106999"
"term-107009","Madrid","40.4167,-3.7036","40.4167","-3.7036","https://data.fitzmuseum.cam.ac.uk/id/terminology/term-107009","https://data.fitzmuseum.cam.ac.uk/api/v1/places/term-107009"
"term-107012","Portugal","40.0333,-7.8896","40.0333","-7.8896","https://data.fitzmuseum.cam.ac.uk/id/terminology/term-107012","https://data.fitzmuseum.cam.ac.uk/api/v1/places/term-107012"
"term-107016","Angers","47.474,-0.5516","47.474","-0.5516","https://data.fitzmuseum.cam.ac.uk/id/terminology/term-107016","https://data.fitzmuseum.cam.ac.uk/api/v1/places/term-107016"
"term-107017","Belgium","50.6403,4.6667","50.6403","4.6667","https://data.fitzmuseum.cam.ac.uk/id/terminology/term-107017","https://data.fitzmuseum.cam.ac.uk/api/v1/places/term-107017"
"term-107020","La Rochelle","46.1591,-1.152","46.1591","-1.152","https://data.fitzmuseum.cam.ac.uk/id/terminology/term-107020","https://data.fitzmuseum.cam.ac.uk/api/v1/places/term-107020"
"term-107021","Tarragona","41.1172,1.2546","41.1172","1.2546","https://data.fitzmuseum.cam.ac.uk/id/terminology/term-107021","https://data.fitzmuseum.cam.ac.uk/api/v1/places/term-107021"
"term-107022","Toledo","39.8561,-4.024","39.8561","-4.024","https://data.fitzmuseum.cam.ac.uk/id/terminology/term-107022","https://data.fitzmuseum.cam.ac.uk/api/v1/places/term-107022"
"term-107023","Isle of Wight","50.6711,-1.3328","50.6711","-1.3328","https://data.fitzmuseum.cam.ac.uk/id/terminology/term-107023","https://data.fitzmuseum.cam.ac.uk/api/v1/places/term-107023"
"term-107024","Mistra","61.9756,11.4014","61.9756","11.4014","https://data.fitzmuseum.cam.ac.uk/id/terminology/term-107024","https://data.fitzmuseum.cam.ac.uk/api/v1/places/term-107024"
"term-107026","Toronto","43.6535,-79.3839","43.6535","-79.3839","https://data.fitzmuseum.cam.ac.uk/id/terminology/term-107026","https://data.fitzmuseum.cam.ac.uk/api/v1/places/term-107026"
"term-107032","Berkeley","37.8753,-122.2396","37.8753","-122.2396","https://data.fitzmuseum.cam.ac.uk/id/terminology/term-107032","https://data.fitzmuseum.cam.ac.uk/api/v1/places/term-107032"
"term-107033","Abbeville","50.1061,1.8337","50.1061","1.8337","https://data.fitzmuseum.cam.ac.uk/id/terminology/term-107033","https://data.fitzmuseum.cam.ac.uk/api/v1/places/term-107033"
"term-107040","Palud","46.9627,-1.7542","46.9627","-1.7542","https://data.fitzmuseum.cam.ac.uk/id/terminology/term-107040","https://data.fitzmuseum.cam.ac.uk/api/v1/places/term-107040"
"term-107042","Brighton","50.8389,-0.1269","50.8389","-0.1269","https://data.fitzmuseum.cam.ac.uk/id/terminology/term-107042","https://data.fitzmuseum.cam.ac.uk/api/v1/places/term-107042"
"term-107043","Segovia","40.9502,-4.1241","40.9502","-4.1241","https://data.fitzmuseum.cam.ac.uk/id/terminology/term-107043","https://data.fitzmuseum.cam.ac.uk/api/v1/places/term-107043"
"term-107044","Tivoli","41.9609,12.7989","41.9609","12.7989","https://data.fitzmuseum.cam.ac.uk/id/terminology/term-107044","https://data.fitzmuseum.cam.ac.uk/api/v1/places/term-107044"
"term-107046","Birchington-on-Sea","51.3775,1.3009","51.3775","1.3009","https://data.fitzmuseum.cam.ac.uk/id/terminology/term-107046","https://data.fitzmuseum.cam.ac.uk/api/v1/places/term-107046"
"term-107048","Corfu","39.5913,19.8596","39.5913","19.8596","https://data.fitzmuseum.cam.ac.uk/id/terminology/term-107048","https://data.fitzmuseum.cam.ac.uk/api/v1/places/term-107048"
"term-107052","Islington","51.5384,-0.0999","51.5384","-0.0999","https://data.fitzmuseum.cam.ac.uk/id/terminology/term-107052","https://data.fitzmuseum.cam.ac.uk/api/v1/places/term-107052"
"term-107053","USA","39.7837,-100.4459","39.7837","-100.4459","https://data.fitzmuseum.cam.ac.uk/id/terminology/term-107053","https://data.fitzmuseum.cam.ac.uk/api/v1/places/term-107053"
"term-107055","Columbus","39.9623,-83.0007","39.9623","-83.0007","https://data.fitzmuseum.cam.ac.uk/id/terminology/term-107055","https://data.fitzmuseum.cam.ac.uk/api/v1/places/term-107055"
"term-107058","Weymouth","50.631,-2.4586","50.631","-2.4586","https://data.fitzmuseum.cam.ac.uk/id/terminology/term-107058","https://data.fitzmuseum.cam.ac.uk/api/v1/places/term-107058"
"term-107060","Burghclere","51.3321,-1.3262","51.3321","-1.3262","https://data.fitzmuseum.cam.ac.uk/id/terminology/term-107060","https://data.fitzmuseum.cam.ac.uk/api/v1/places/term-107060"
"term-107061","Cookham","51.5601,-0.7082","51.5601","-0.7082","https://data.fitzmuseum.cam.ac.uk/id/terminology/term-107061","https://data.fitzmuseum.cam.ac.uk/api/v1/places/term-107061"
"term-107062","Norwich","52.6286,1.2923","52.6286","1.2923","https://data.fitzmuseum.cam.ac.uk/id/terminology/term-107062","https://data.fitzmuseum.cam.ac.uk/api/v1/places/term-107062"
"term-107065","Yarmouth","52.6072,1.7315","52.6072","1.7315","https://data.fitzmuseum.cam.ac.uk/id/terminology/term-107065","https://data.fitzmuseum.cam.ac.uk/api/v1/places/term-107065"
"term-107067","Tahiti","-17.6873,-149.4452","-17.6873","-149.4452","https://data.fitzmuseum.cam.ac.uk/id/terminology/term-107067","https://data.fitzmuseum.cam.ac.uk/api/v1/places/term-107067"
"term-107075","Dedham","41.9063,-94.8222","41.9063","-94.8222","https://data.fitzmuseum.cam.ac.uk/id/terminology/term-107075","https://data.fitzmuseum.cam.ac.uk/api/v1/places/term-107075"
"term-107119","Salisbury","51.0691,-1.7954","51.0691","-1.7954","https://data.fitzmuseum.cam.ac.uk/id/terminology/term-107119","https://data.fitzmuseum.cam.ac.uk/api/v1/places/term-107119"
"term-107139","England","52.531,-1.2649","52.531","-1.2649","https://data.fitzmuseum.cam.ac.uk/id/terminology/term-107139","https://data.fitzmuseum.cam.ac.uk/api/v1/places/term-107139"
"term-107144","Harrow","51.5968,-0.3373","51.5968","-0.3373","https://data.fitzmuseum.cam.ac.uk/id/terminology/term-107144","https://data.fitzmuseum.cam.ac.uk/api/v1/places/term-107144"
"term-107146","Colchester","51.8897,0.8995","51.8897","0.8995","https://data.fitzmuseum.cam.ac.uk/id/terminology/term-107146","https://data.fitzmuseum.cam.ac.uk/api/v1/places/term-107146"
"term-107154","Dover","51.1251,1.3134","51.1251","1.3134","https://data.fitzmuseum.cam.ac.uk/id/terminology/term-107154","https://data.fitzmuseum.cam.ac.uk/api/v1/places/term-107154"
"term-107175","Kingston-on-Thames","51.6744,-1.2821","51.6744","-1.2821","https://data.fitzmuseum.cam.ac.uk/id/terminology/term-107175","https://data.fitzmuseum.cam.ac.uk/api/v1/places/term-107175"
"term-107177","Bruges","51.2086,3.2268","51.2086","3.2268","https://data.fitzmuseum.cam.ac.uk/id/terminology/term-107177","https://data.fitzmuseum.cam.ac.uk/api/v1/places/term-107177"
"term-107178","Tonbridge","51.189,0.2736","51.189","0.2736","https://data.fitzmuseum.cam.ac.uk/id/terminology/term-107178","https://data.fitzmuseum.cam.ac.uk/api/v1/places/term-107178"
"term-107202","Ireland","52.8652,-7.9795","52.8652","-7.9795","https://data.fitzmuseum.cam.ac.uk/id/terminology/term-107202","https://data.fitzmuseum.cam.ac.uk/api/v1/places/term-107202"
"term-107203","Calais","50.9525,1.8538","50.9525","1.8538","https://data.fitzmuseum.cam.ac.uk/id/terminology/term-107203","https://data.fitzmuseum.cam.ac.uk/api/v1/places/term-107203"
"term-107230","Southampton","50.9025,-1.4042","50.9025","-1.4042","https://data.fitzmuseum.cam.ac.uk/id/terminology/term-107230","https://data.fitzmuseum.cam.ac.uk/api/v1/places/term-107230"
"term-107231","Le Havre","49.4939,0.108","49.4939","0.108","https://data.fitzmuseum.cam.ac.uk/id/terminology/term-107231","https://data.fitzmuseum.cam.ac.uk/api/v1/places/term-107231"
"term-107232","Villequier","49.5073,0.6518","49.5073","0.6518","https://data.fitzmuseum.cam.ac.uk/id/terminology/term-107232","https://data.fitzmuseum.cam.ac.uk/api/v1/places/term-107232"
"term-107245","Carlisle","54.8948,-2.9362","54.8948","-2.9362","https://data.fitzmuseum.cam.ac.uk/id/terminology/term-107245","https://data.fitzmuseum.cam.ac.uk/api/v1/places/term-107245"
"term-107253","Lincoln","40.8089,-96.7078","40.8089","-96.7078","https://data.fitzmuseum.cam.ac.uk/id/terminology/term-107253","https://data.fitzmuseum.cam.ac.uk/api/v1/places/term-107253"
"term-107291","Bourne","52.7682,-0.3772","52.7682","-0.3772","https://data.fitzmuseum.cam.ac.uk/id/terminology/term-107291","https://data.fitzmuseum.cam.ac.uk/api/v1/places/term-107291"
"term-107306","Grantchester","52.1794,0.0933","52.1794","0.0933","https://data.fitzmuseum.cam.ac.uk/id/terminology/term-107306","https://data.fitzmuseum.cam.ac.uk/api/v1/places/term-107306"
"term-107329","Cromer","52.9311,1.3013","52.9311","1.3013","https://data.fitzmuseum.cam.ac.uk/id/terminology/term-107329","https://data.fitzmuseum.cam.ac.uk/api/v1/places/term-107329"
"term-107341","Dorking","51.2325,-0.3307","51.2325","-0.3307","https://data.fitzmuseum.cam.ac.uk/id/terminology/term-107341","https://data.fitzmuseum.cam.ac.uk/api/v1/places/term-107341"
"term-107343","Versailles","48.8035,2.1267","48.8035","2.1267","https://data.fitzmuseum.cam.ac.uk/id/terminology/term-107343","https://data.fitzmuseum.cam.ac.uk/api/v1/places/term-107343"
"term-107351","Boulogne","46.7947,-1.321","46.7947","-1.321","https://data.fitzmuseum.cam.ac.uk/id/terminology/term-107351","https://data.fitzmuseum.cam.ac.uk/api/v1/places/term-107351"
"term-107361","Dordrecht","51.7959,4.6779","51.7959","4.6779","https://data.fitzmuseum.cam.ac.uk/id/terminology/term-107361","https://data.fitzmuseum.cam.ac.uk/api/v1/places/term-107361"
"term-107364","Lucerne","47.0505,8.3055","47.0505","8.3055","https://data.fitzmuseum.cam.ac.uk/id/terminology/term-107364","https://data.fitzmuseum.cam.ac.uk/api/v1/places/term-107364"
"term-107365","Knaresborough","54.01,-1.4622","54.01","-1.4622","https://data.fitzmuseum.cam.ac.uk/id/terminology/term-107365","https://data.fitzmuseum.cam.ac.uk/api/v1/places/term-107365"
"term-107366","Lydd","50.951,0.9065","50.951","0.9065","https://data.fitzmuseum.cam.ac.uk/id/terminology/term-107366","https://data.fitzmuseum.cam.ac.uk/api/v1/places/term-107366"
"term-107368","Whitby","54.4874,-0.6155","54.4874","-0.6155","https://data.fitzmuseum.cam.ac.uk/id/terminology/term-107368","https://data.fitzmuseum.cam.ac.uk/api/v1/places/term-107368"
"term-107375","Marlborough","42.3459,-71.5523","42.3459","-71.5523","https://data.fitzmuseum.cam.ac.uk/id/terminology/term-107375","https://data.fitzmuseum.cam.ac.uk/api/v1/places/term-107375"
"term-107382","Edo","6.6077,5.9723","6.6077","5.9723","https://data.fitzmuseum.cam.ac.uk/id/terminology/term-107382","https://data.fitzmuseum.cam.ac.uk/api/v1/places/term-107382"
"term-10739","Rakka","35.9497,39.0089","35.9497","39.0089","https://data.fitzmuseum.cam.ac.uk/id/terminology/term-10739","https://data.fitzmuseum.cam.ac.uk/api/v1/places/term-10739"
"term-107392","Conway","35.2522,-92.6889","35.2522","-92.6889","https://data.fitzmuseum.cam.ac.uk/id/terminology/term-107392","https://data.fitzmuseum.cam.ac.uk/api/v1/places/term-107392"
"term-107393","Saragossa","41.6521,-0.8809","41.6521","-0.8809","https://data.fitzmuseum.cam.ac.uk/id/terminology/term-107393","https://data.fitzmuseum.cam.ac.uk/api/v1/places/term-107393"
"term-107398","York","53.9591,-1.0815","53.9591","-1.0815","https://data.fitzmuseum.cam.ac.uk/id/terminology/term-107398","https://data.fitzmuseum.cam.ac.uk/api/v1/places/term-107398"
"term-107402","Mansfield","40.7584,-82.5154","40.7584","-82.5154","https://data.fitzmuseum.cam.ac.uk/id/terminology/term-107402","https://data.fitzmuseum.cam.ac.uk/api/v1/places/term-107402"
"term-107408","Amboise","47.411,0.9837","47.411","0.9837","https://data.fitzmuseum.cam.ac.uk/id/terminology/term-107408","https://data.fitzmuseum.cam.ac.uk/api/v1/places/term-107408"
"term-107413","Mount Carmel","38.4109,-87.7614","38.4109","-87.7614","https://data.fitzmuseum.cam.ac.uk/id/terminology/term-107413","https://data.fitzmuseum.cam.ac.uk/api/v1/places/term-107413"
"term-107415","Alassio","44.008,8.173","44.008","8.173","https://data.fitzmuseum.cam.ac.uk/id/terminology/term-107415","https://data.fitzmuseum.cam.ac.uk/api/v1/places/term-107415"
"term-107420","Mechelen","51.0281,4.4803","51.0281","4.4803","https://data.fitzmuseum.cam.ac.uk/id/terminology/term-107420","https://data.fitzmuseum.cam.ac.uk/api/v1/places/term-107420"
"term-107421","Geneva","46.2018,6.1466","46.2018","6.1466","https://data.fitzmuseum.cam.ac.uk/id/terminology/term-107421","https://data.fitzmuseum.cam.ac.uk/api/v1/places/term-107421"
"term-107422","Holywell","53.2714,-3.2213","53.2714","-3.2213","https://data.fitzmuseum.cam.ac.uk/id/terminology/term-107422","https://data.fitzmuseum.cam.ac.uk/api/v1/places/term-107422"
"term-107424","St Pierre","48.3833,7.4719","48.3833","7.4719","https://data.fitzmuseum.cam.ac.uk/id/terminology/term-107424","https://data.fitzmuseum.cam.ac.uk/api/v1/places/term-107424"
"term-107425","Evreux","49.0269,1.151","49.0269","1.151","https://data.fitzmuseum.cam.ac.uk/id/terminology/term-107425","https://data.fitzmuseum.cam.ac.uk/api/v1/places/term-107425"
"term-107426","Bayeux","49.2765,-0.7025","49.2765","-0.7025","https://data.fitzmuseum.cam.ac.uk/id/terminology/term-107426","https://data.fitzmuseum.cam.ac.uk/api/v1/places/term-107426"
"term-107427","Brionne","49.1949,0.7181","49.1949","0.7181","https://data.fitzmuseum.cam.ac.uk/id/terminology/term-107427","https://data.fitzmuseum.cam.ac.uk/api/v1/places/term-107427"
"term-107428","Bushey","51.6442,-0.3622","51.6442","-0.3622","https://data.fitzmuseum.cam.ac.uk/id/terminology/term-107428","https://data.fitzmuseum.cam.ac.uk/api/v1/places/term-107428"
"term-107429","Pegwell Bay","51.3228,1.3786","51.3228","1.3786","https://data.fitzmuseum.cam.ac.uk/id/terminology/term-107429","https://data.fitzmuseum.cam.ac.uk/api/v1/places/term-107429"
"term-107432","Tenby","51.6697,-4.708","51.6697","-4.708","https://data.fitzmuseum.cam.ac.uk/id/terminology/term-107432","https://data.fitzmuseum.cam.ac.uk/api/v1/places/term-107432"
"term-107448","Woodbridge","40.5576,-74.2846","40.5576","-74.2846","https://data.fitzmuseum.cam.ac.uk/id/terminology/term-107448","https://data.fitzmuseum.cam.ac.uk/api/v1/places/term-107448"
"term-107488","Lofoten","63.3044,15.6139","63.3044","15.6139","https://data.fitzmuseum.cam.ac.uk/id/terminology/term-107488","https://data.fitzmuseum.cam.ac.uk/api/v1/places/term-107488"
"term-107489","Svolvaer","68.2322,14.5646","68.2322","14.5646","https://data.fitzmuseum.cam.ac.uk/id/terminology/term-107489","https://data.fitzmuseum.cam.ac.uk/api/v1/places/term-107489"
"term-107490","Iceland","64.9842,-18.1059","64.9842","-18.1059","https://data.fitzmuseum.cam.ac.uk/id/terminology/term-107490","https://data.fitzmuseum.cam.ac.uk/api/v1/places/term-107490"
"term-107491","Sicily","37.5878,14.155","37.5878","14.155","https://data.fitzmuseum.cam.ac.uk/id/terminology/term-107491","https://data.fitzmuseum.cam.ac.uk/api/v1/places/term-107491"
"term-107492","Trondheim","63.4306,10.3952","63.4306","10.3952","https://data.fitzmuseum.cam.ac.uk/id/terminology/term-107492","https://data.fitzmuseum.cam.ac.uk/api/v1/places/term-107492"
"term-107494","Aldeburgh","52.1524,1.6015","52.1524","1.6015","https://data.fitzmuseum.cam.ac.uk/id/terminology/term-107494","https://data.fitzmuseum.cam.ac.uk/api/v1/places/term-107494"
"term-107496","Austria","47.594,14.1246","47.594","14.1246","https://data.fitzmuseum.cam.ac.uk/id/terminology/term-107496","https://data.fitzmuseum.cam.ac.uk/api/v1/places/term-107496"
"term-107497","Israel","31.5313,34.8668","31.5313","34.8668","https://data.fitzmuseum.cam.ac.uk/id/terminology/term-107497","https://data.fitzmuseum.cam.ac.uk/api/v1/places/term-107497"
"term-107567","Leeds (Yorks.)","53.7996,-1.5848","53.7996","-1.5848","https://data.fitzmuseum.cam.ac.uk/id/terminology/term-107567","https://data.fitzmuseum.cam.ac.uk/api/v1/places/term-107567"
"term-107608","Athens","37.9839,23.7283","37.9839","23.7283","https://data.fitzmuseum.cam.ac.uk/id/terminology/term-107608","https://data.fitzmuseum.cam.ac.uk/api/v1/places/term-107608"
"term-107658","Staffordshire","52.8247,-2.0075","52.8247","-2.0075","https://data.fitzmuseum.cam.ac.uk/id/terminology/term-107658","https://data.fitzmuseum.cam.ac.uk/api/v1/places/term-107658"
"term-107680","Cardiff","51.4817,-3.1792","51.4817","-3.1792","https://data.fitzmuseum.cam.ac.uk/id/terminology/term-107680","https://data.fitzmuseum.cam.ac.uk/api/v1/places/term-107680"
"term-107687","Birmingham","52.4797,-1.9027","52.4797","-1.9027","https://data.fitzmuseum.cam.ac.uk/id/terminology/term-107687","https://data.fitzmuseum.cam.ac.uk/api/v1/places/term-107687"
"term-107752","Minneapolis","44.9773,-93.2655","44.9773","-93.2655","https://data.fitzmuseum.cam.ac.uk/id/terminology/term-107752","https://data.fitzmuseum.cam.ac.uk/api/v1/places/term-107752"
"term-107770","San Francisco","37.779,-122.4199","37.779","-122.4199","https://data.fitzmuseum.cam.ac.uk/id/terminology/term-107770","https://data.fitzmuseum.cam.ac.uk/api/v1/places/term-107770"
"term-107776","Copenhagen","55.6867,12.5701","55.6867","12.5701","https://data.fitzmuseum.cam.ac.uk/id/terminology/term-107776","https://data.fitzmuseum.cam.ac.uk/api/v1/places/term-107776"
"term-107778","Harrogate","53.9921,-1.5391","53.9921","-1.5391","https://data.fitzmuseum.cam.ac.uk/id/terminology/term-107778","https://data.fitzmuseum.cam.ac.uk/api/v1/places/term-107778"
"term-107784","Padua","45.4077,11.8734","45.4077","11.8734","https://data.fitzmuseum.cam.ac.uk/id/terminology/term-107784","https://data.fitzmuseum.cam.ac.uk/api/v1/places/term-107784"
"term-107795","Osaka","34.6199,135.4904","34.6199","135.4904","https://data.fitzmuseum.cam.ac.uk/id/terminology/term-107795","https://data.fitzmuseum.cam.ac.uk/api/v1/places/term-107795"
"term-107798","Melbourne (Derbys.)","character(0)","NULL","NULL","https://data.fitzmuseum.cam.ac.uk/id/terminology/term-107798","https://data.fitzmuseum.cam.ac.uk/api/v1/places/term-107798"
"term-107799","Australia","-24.7761,134.755","-24.7761","134.755","https://data.fitzmuseum.cam.ac.uk/id/terminology/term-107799","https://data.fitzmuseum.cam.ac.uk/api/v1/places/term-107799"
"term-107800","Japan","36.5748,139.2394","36.5748","139.2394","https://data.fitzmuseum.cam.ac.uk/id/terminology/term-107800","https://data.fitzmuseum.cam.ac.uk/api/v1/places/term-107800"
"term-107815","Germany","51.0834,10.4234","51.0834","10.4234","https://data.fitzmuseum.cam.ac.uk/id/terminology/term-107815","https://data.fitzmuseum.cam.ac.uk/api/v1/places/term-107815"
"term-107826","Great Britain","54.3154,-1.918","54.3154","-1.918","https://data.fitzmuseum.cam.ac.uk/id/terminology/term-107826","https://data.fitzmuseum.cam.ac.uk/api/v1/places/term-107826"
"term-107863","Isle of Man","54.1937,-4.5591","54.1937","-4.5591","https://data.fitzmuseum.cam.ac.uk/id/terminology/term-107863","https://data.fitzmuseum.cam.ac.uk/api/v1/places/term-107863"
"term-107866","Sweden","59.675,14.5209","59.675","14.5209","https://data.fitzmuseum.cam.ac.uk/id/terminology/term-107866","https://data.fitzmuseum.cam.ac.uk/api/v1/places/term-107866"
"term-107870","Egypt","26.254,29.2675","26.254","29.2675","https://data.fitzmuseum.cam.ac.uk/id/terminology/term-107870","https://data.fitzmuseum.cam.ac.uk/api/v1/places/term-107870"
"term-107872","Douglas","39.7628,-88.2171","39.7628","-88.2171","https://data.fitzmuseum.cam.ac.uk/id/terminology/term-107872","https://data.fitzmuseum.cam.ac.uk/api/v1/places/term-107872"
"term-107888","Persia","32.6475,54.5644","32.6475","54.5644","https://data.fitzmuseum.cam.ac.uk/id/terminology/term-107888","https://data.fitzmuseum.cam.ac.uk/api/v1/places/term-107888"
"term-107891","Iran","32.6475,54.5644","32.6475","54.5644","https://data.fitzmuseum.cam.ac.uk/id/terminology/term-107891","https://data.fitzmuseum.cam.ac.uk/api/v1/places/term-107891"
"term-107896","Syria","34.6402,39.0494","34.6402","39.0494","https://data.fitzmuseum.cam.ac.uk/id/terminology/term-107896","https://data.fitzmuseum.cam.ac.uk/api/v1/places/term-107896"
"term-107996","Lille","50.6366,3.0635","50.6366","3.0635","https://data.fitzmuseum.cam.ac.uk/id/terminology/term-107996","https://data.fitzmuseum.cam.ac.uk/api/v1/places/term-107996"
"term-107997","Dublin","53.3498,-6.2603","53.3498","-6.2603","https://data.fitzmuseum.cam.ac.uk/id/terminology/term-107997","https://data.fitzmuseum.cam.ac.uk/api/v1/places/term-107997"
"term-107998","Pompei","40.7491,14.5006","40.7491","14.5006","https://data.fitzmuseum.cam.ac.uk/id/terminology/term-107998","https://data.fitzmuseum.cam.ac.uk/api/v1/places/term-107998"
"term-107999","Rimini","43.9471,12.6308","43.9471","12.6308","https://data.fitzmuseum.cam.ac.uk/id/terminology/term-107999","https://data.fitzmuseum.cam.ac.uk/api/v1/places/term-107999"
"term-108008","Reading (Berks.)","51.4535,-1.0319","51.4535","-1.0319","https://data.fitzmuseum.cam.ac.uk/id/terminology/term-108008","https://data.fitzmuseum.cam.ac.uk/api/v1/places/term-108008"
"term-108021","Danzig","54.3707,18.613","54.3707","18.613","https://data.fitzmuseum.cam.ac.uk/id/terminology/term-108021","https://data.fitzmuseum.cam.ac.uk/api/v1/places/term-108021"
"term-108023","Arnhem","51.9843,5.9109","51.9843","5.9109","https://data.fitzmuseum.cam.ac.uk/id/terminology/term-108023","https://data.fitzmuseum.cam.ac.uk/api/v1/places/term-108023"
"term-108025","Caen","49.1813,-0.3636","49.1813","-0.3636","https://data.fitzmuseum.cam.ac.uk/id/terminology/term-108025","https://data.fitzmuseum.cam.ac.uk/api/v1/places/term-108025"
"term-108086","Wimbledon","51.4215,-0.2064","51.4215","-0.2064","https://data.fitzmuseum.cam.ac.uk/id/terminology/term-108086","https://data.fitzmuseum.cam.ac.uk/api/v1/places/term-108086"
"term-108090","Preston","53.7593,-2.6993","53.7593","-2.6993","https://data.fitzmuseum.cam.ac.uk/id/terminology/term-108090","https://data.fitzmuseum.cam.ac.uk/api/v1/places/term-108090"
"term-108100","Sheffield","53.3807,-1.4702","53.3807","-1.4702","https://data.fitzmuseum.cam.ac.uk/id/terminology/term-108100","https://data.fitzmuseum.cam.ac.uk/api/v1/places/term-108100"
"term-108104","Liége","50.6451,5.5734","50.6451","5.5734","https://data.fitzmuseum.cam.ac.uk/id/terminology/term-108104","https://data.fitzmuseum.cam.ac.uk/api/v1/places/term-108104"
"term-108118","Hong Kong","22.2793,114.1628","22.2793","114.1628","https://data.fitzmuseum.cam.ac.uk/id/terminology/term-108118","https://data.fitzmuseum.cam.ac.uk/api/v1/places/term-108118"
"term-108120","China","35.0001,104.9999","35.0001","104.9999","https://data.fitzmuseum.cam.ac.uk/id/terminology/term-108120","https://data.fitzmuseum.cam.ac.uk/api/v1/places/term-108120"
"term-108127","Kansas City","39.1001,-94.5781","39.1001","-94.5781","https://data.fitzmuseum.cam.ac.uk/id/terminology/term-108127","https://data.fitzmuseum.cam.ac.uk/api/v1/places/term-108127"
"term-108143","Sudbury (Suff.)","character(0)","NULL","NULL","https://data.fitzmuseum.cam.ac.uk/id/terminology/term-108143","https://data.fitzmuseum.cam.ac.uk/api/v1/places/term-108143"
"term-108153","Manchester","53.4795,-2.2451","53.4795","-2.2451","https://data.fitzmuseum.cam.ac.uk/id/terminology/term-108153","https://data.fitzmuseum.cam.ac.uk/api/v1/places/term-108153"
"term-108155","Bedford","52.1364,-0.4675","52.1364","-0.4675","https://data.fitzmuseum.cam.ac.uk/id/terminology/term-108155","https://data.fitzmuseum.cam.ac.uk/api/v1/places/term-108155"
"term-108171","Burslem","53.0446,-2.1928","53.0446","-2.1928","https://data.fitzmuseum.cam.ac.uk/id/terminology/term-108171","https://data.fitzmuseum.cam.ac.uk/api/v1/places/term-108171"
"term-108173","Plymouth","50.3713,-4.1426","50.3713","-4.1426","https://data.fitzmuseum.cam.ac.uk/id/terminology/term-108173","https://data.fitzmuseum.cam.ac.uk/api/v1/places/term-108173"
"term-108175","Gateshead","54.9626,-1.6019","54.9626","-1.6019","https://data.fitzmuseum.cam.ac.uk/id/terminology/term-108175","https://data.fitzmuseum.cam.ac.uk/api/v1/places/term-108175"
"term-108176","Swansea","51.6196,-3.9459","51.6196","-3.9459","https://data.fitzmuseum.cam.ac.uk/id/terminology/term-108176","https://data.fitzmuseum.cam.ac.uk/api/v1/places/term-108176"
"term-108186","Margate","51.3878,1.382","51.3878","1.382","https://data.fitzmuseum.cam.ac.uk/id/terminology/term-108186","https://data.fitzmuseum.cam.ac.uk/api/v1/places/term-108186"
"term-108206","Stockholm","59.3251,18.0711","59.3251","18.0711","https://data.fitzmuseum.cam.ac.uk/id/terminology/term-108206","https://data.fitzmuseum.cam.ac.uk/api/v1/places/term-108206"
"term-108214","Washington, D.C.","38.9074,-77.0351","38.9074","-77.0351","https://data.fitzmuseum.cam.ac.uk/id/terminology/term-108214","https://data.fitzmuseum.cam.ac.uk/api/v1/places/term-108214"
"term-108227","Kensington","51.499,-0.1991","51.499","-0.1991","https://data.fitzmuseum.cam.ac.uk/id/terminology/term-108227","https://data.fitzmuseum.cam.ac.uk/api/v1/places/term-108227"
"term-108228","Windsor","51.4838,-0.6041","51.4838","-0.6041","https://data.fitzmuseum.cam.ac.uk/id/terminology/term-108228","https://data.fitzmuseum.cam.ac.uk/api/v1/places/term-108228"
"term-108234","Constantinople","41.0092,28.9662","41.0092","28.9662","https://data.fitzmuseum.cam.ac.uk/id/terminology/term-108234","https://data.fitzmuseum.cam.ac.uk/api/v1/places/term-108234"
"term-108246","Sandringham","52.8428,0.4318","52.8428","0.4318","https://data.fitzmuseum.cam.ac.uk/id/terminology/term-108246","https://data.fitzmuseum.cam.ac.uk/api/v1/places/term-108246"
"term-108271","Salzburg","47.7981,13.0465","47.7981","13.0465","https://data.fitzmuseum.cam.ac.uk/id/terminology/term-108271","https://data.fitzmuseum.cam.ac.uk/api/v1/places/term-108271"
"term-108281","Baden-Baden","48.7581,8.2415","48.7581","8.2415","https://data.fitzmuseum.cam.ac.uk/id/terminology/term-108281","https://data.fitzmuseum.cam.ac.uk/api/v1/places/term-108281"
"term-108285","Middletown","41.5623,-72.6509","41.5623","-72.6509","https://data.fitzmuseum.cam.ac.uk/id/terminology/term-108285","https://data.fitzmuseum.cam.ac.uk/api/v1/places/term-108285"
"term-108301","Otterbourne","50.9985,-1.3456","50.9985","-1.3456","https://data.fitzmuseum.cam.ac.uk/id/terminology/term-108301","https://data.fitzmuseum.cam.ac.uk/api/v1/places/term-108301"
"term-108305","Leicester","52.6361,-1.1331","52.6361","-1.1331","https://data.fitzmuseum.cam.ac.uk/id/terminology/term-108305","https://data.fitzmuseum.cam.ac.uk/api/v1/places/term-108305"
"term-108306","Halesowen","52.4492,-2.0515","52.4492","-2.0515","https://data.fitzmuseum.cam.ac.uk/id/terminology/term-108306","https://data.fitzmuseum.cam.ac.uk/api/v1/places/term-108306"
"term-108332","Ilminster","50.9267,-2.9103","50.9267","-2.9103","https://data.fitzmuseum.cam.ac.uk/id/terminology/term-108332","https://data.fitzmuseum.cam.ac.uk/api/v1/places/term-108332"
"term-108347","Walthamstow","51.5845,-0.0188","51.5845","-0.0188","https://data.fitzmuseum.cam.ac.uk/id/terminology/term-108347","https://data.fitzmuseum.cam.ac.uk/api/v1/places/term-108347"
"term-108395","Bungay","52.4562,1.4373","52.4562","1.4373","https://data.fitzmuseum.cam.ac.uk/id/terminology/term-108395","https://data.fitzmuseum.cam.ac.uk/api/v1/places/term-108395"
"term-108424","Lambeth","51.5013,-0.1173","51.5013","-0.1173","https://data.fitzmuseum.cam.ac.uk/id/terminology/term-108424","https://data.fitzmuseum.cam.ac.uk/api/v1/places/term-108424"
"term-108462","Forlì","44.2227,12.0413","44.2227","12.0413","https://data.fitzmuseum.cam.ac.uk/id/terminology/term-108462","https://data.fitzmuseum.cam.ac.uk/api/v1/places/term-108462"
"term-108494","Dresden","51.0493,13.7381","51.0493","13.7381","https://data.fitzmuseum.cam.ac.uk/id/terminology/term-108494","https://data.fitzmuseum.cam.ac.uk/api/v1/places/term-108494"
"term-108511","Denby Dale","53.5911,-1.6294","53.5911","-1.6294","https://data.fitzmuseum.cam.ac.uk/id/terminology/term-108511","https://data.fitzmuseum.cam.ac.uk/api/v1/places/term-108511"
"term-108518","Gaza","31.5129,34.4581","31.5129","34.4581","https://data.fitzmuseum.cam.ac.uk/id/terminology/term-108518","https://data.fitzmuseum.cam.ac.uk/api/v1/places/term-108518"
"term-108521","Jerusalem","31.7788,35.2258","31.7788","35.2258","https://data.fitzmuseum.cam.ac.uk/id/terminology/term-108521","https://data.fitzmuseum.cam.ac.uk/api/v1/places/term-108521"
"term-108523","Abingdon","51.6715,-1.278","51.6715","-1.278","https://data.fitzmuseum.cam.ac.uk/id/terminology/term-108523","https://data.fitzmuseum.cam.ac.uk/api/v1/places/term-108523"
"term-108595","Cuenca","40.0681,-2.1348","40.0681","-2.1348","https://data.fitzmuseum.cam.ac.uk/id/terminology/term-108595","https://data.fitzmuseum.cam.ac.uk/api/v1/places/term-108595"
"term-108597","Faenza","44.2856,11.8832","44.2856","11.8832","https://data.fitzmuseum.cam.ac.uk/id/terminology/term-108597","https://data.fitzmuseum.cam.ac.uk/api/v1/places/term-108597"
"term-108598","Seville","37.3886,-5.9953","37.3886","-5.9953","https://data.fitzmuseum.cam.ac.uk/id/terminology/term-108598","https://data.fitzmuseum.cam.ac.uk/api/v1/places/term-108598"
"term-108631","Seoul","37.5667,126.9783","37.5667","126.9783","https://data.fitzmuseum.cam.ac.uk/id/terminology/term-108631","https://data.fitzmuseum.cam.ac.uk/api/v1/places/term-108631"
"term-108736","phoenix","33.4484,-112.0741","33.4484","-112.0741","https://data.fitzmuseum.cam.ac.uk/id/terminology/term-108736","https://data.fitzmuseum.cam.ac.uk/api/v1/places/term-108736"
"term-108823","Torre Annunziata","40.7525,14.455","40.7525","14.455","https://data.fitzmuseum.cam.ac.uk/id/terminology/term-108823","https://data.fitzmuseum.cam.ac.uk/api/v1/places/term-108823"
"term-108824","Corpo di Cava","40.6832,14.6923","40.6832","14.6923","https://data.fitzmuseum.cam.ac.uk/id/terminology/term-108824","https://data.fitzmuseum.cam.ac.uk/api/v1/places/term-108824"
"term-108830","Bradford","53.7944,-1.7519","53.7944","-1.7519","https://data.fitzmuseum.cam.ac.uk/id/terminology/term-108830","https://data.fitzmuseum.cam.ac.uk/api/v1/places/term-108830"
"term-108831","Bucharest","44.4361,26.1027","44.4361","26.1027","https://data.fitzmuseum.cam.ac.uk/id/terminology/term-108831","https://data.fitzmuseum.cam.ac.uk/api/v1/places/term-108831"
"term-108832","Denmark","55.6702,10.3333","55.6702","10.3333","https://data.fitzmuseum.cam.ac.uk/id/terminology/term-108832","https://data.fitzmuseum.cam.ac.uk/api/v1/places/term-108832"
"term-108834","Civitella","42.9045,12.9576","42.9045","12.9576","https://data.fitzmuseum.cam.ac.uk/id/terminology/term-108834","https://data.fitzmuseum.cam.ac.uk/api/v1/places/term-108834"
"term-108839","Papignia","character(0)","NULL","NULL","https://data.fitzmuseum.cam.ac.uk/id/terminology/term-108839","https://data.fitzmuseum.cam.ac.uk/api/v1/places/term-108839"
"term-108843","Aberdeen","57.1482,-2.0928","57.1482","-2.0928","https://data.fitzmuseum.cam.ac.uk/id/terminology/term-108843","https://data.fitzmuseum.cam.ac.uk/api/v1/places/term-108843"
"term-108844","Sunderland","54.9059,-1.3829","54.9059","-1.3829","https://data.fitzmuseum.cam.ac.uk/id/terminology/term-108844","https://data.fitzmuseum.cam.ac.uk/api/v1/places/term-108844"
"term-108845","Belfast","54.5964,-5.9302","54.5964","-5.9302","https://data.fitzmuseum.cam.ac.uk/id/terminology/term-108845","https://data.fitzmuseum.cam.ac.uk/api/v1/places/term-108845"
"term-108848","Hull (N.E.)","46.0286,-100.1248","46.0286","-100.1248","https://data.fitzmuseum.cam.ac.uk/id/terminology/term-108848","https://data.fitzmuseum.cam.ac.uk/api/v1/places/term-108848"
"term-108849","Los Angeles","34.0537,-118.2428","34.0537","-118.2428","https://data.fitzmuseum.cam.ac.uk/id/terminology/term-108849","https://data.fitzmuseum.cam.ac.uk/api/v1/places/term-108849"
"term-108850","Canada","61.0667,-107.9917","61.0667","-107.9917","https://data.fitzmuseum.cam.ac.uk/id/terminology/term-108850","https://data.fitzmuseum.cam.ac.uk/api/v1/places/term-108850"
"term-108854","Yokohama","35.445,139.6368","35.445","139.6368","https://data.fitzmuseum.cam.ac.uk/id/terminology/term-108854","https://data.fitzmuseum.cam.ac.uk/api/v1/places/term-108854"
"term-108860","Cleveland","41.4997,-81.6937","41.4997","-81.6937","https://data.fitzmuseum.cam.ac.uk/id/terminology/term-108860","https://data.fitzmuseum.cam.ac.uk/api/v1/places/term-108860"
"term-108861","Eastbourne","50.7664,0.2782","50.7664","0.2782","https://data.fitzmuseum.cam.ac.uk/id/terminology/term-108861","https://data.fitzmuseum.cam.ac.uk/api/v1/places/term-108861"
"term-108863","Peterborough","52.5726,-0.2427","52.5726","-0.2427","https://data.fitzmuseum.cam.ac.uk/id/terminology/term-108863","https://data.fitzmuseum.cam.ac.uk/api/v1/places/term-108863"
"term-108864","Huntingdon","52.3424,-0.1818","52.3424","-0.1818","https://data.fitzmuseum.cam.ac.uk/id/terminology/term-108864","https://data.fitzmuseum.cam.ac.uk/api/v1/places/term-108864"
"term-108869","Dusseldorf","51.2254,6.7763","51.2254","6.7763","https://data.fitzmuseum.cam.ac.uk/id/terminology/term-108869","https://data.fitzmuseum.cam.ac.uk/api/v1/places/term-108869"
"term-108902","Diyarbakir","37.9162,40.2364","37.9162","40.2364","https://data.fitzmuseum.cam.ac.uk/id/terminology/term-108902","https://data.fitzmuseum.cam.ac.uk/api/v1/places/term-108902"
"term-108903","Graz","47.0709,15.4383","47.0709","15.4383","https://data.fitzmuseum.cam.ac.uk/id/terminology/term-108903","https://data.fitzmuseum.cam.ac.uk/api/v1/places/term-108903"
"term-108955","Augsburg","48.3668,10.8987","48.3668","10.8987","https://data.fitzmuseum.cam.ac.uk/id/terminology/term-108955","https://data.fitzmuseum.cam.ac.uk/api/v1/places/term-108955"
"term-108983","Pisa","43.7159,10.4019","43.7159","10.4019","https://data.fitzmuseum.cam.ac.uk/id/terminology/term-108983","https://data.fitzmuseum.cam.ac.uk/api/v1/places/term-108983"
"term-109009","Kineton","52.1575,-1.5183","52.1575","-1.5183","https://data.fitzmuseum.cam.ac.uk/id/terminology/term-109009","https://data.fitzmuseum.cam.ac.uk/api/v1/places/term-109009"
"term-109027","Innsbruck","47.2654,11.3928","47.2654","11.3928","https://data.fitzmuseum.cam.ac.uk/id/terminology/term-109027","https://data.fitzmuseum.cam.ac.uk/api/v1/places/term-109027"
"term-109034","Walworth","45.4044,-100.0073","45.4044","-100.0073","https://data.fitzmuseum.cam.ac.uk/id/terminology/term-109034","https://data.fitzmuseum.cam.ac.uk/api/v1/places/term-109034"
"term-109042","Calatayud","41.3528,-1.6423","41.3528","-1.6423","https://data.fitzmuseum.cam.ac.uk/id/terminology/term-109042","https://data.fitzmuseum.cam.ac.uk/api/v1/places/term-109042"
"term-109044","Aragon","41.3787,-0.7639","41.3787","-0.7639","https://data.fitzmuseum.cam.ac.uk/id/terminology/term-109044","https://data.fitzmuseum.cam.ac.uk/api/v1/places/term-109044"
"term-109069","Prague","50.0875,14.4213","50.0875","14.4213","https://data.fitzmuseum.cam.ac.uk/id/terminology/term-109069","https://data.fitzmuseum.cam.ac.uk/api/v1/places/term-109069"
"term-109080","Haslemere","51.0876,-0.7098","51.0876","-0.7098","https://data.fitzmuseum.cam.ac.uk/id/terminology/term-109080","https://data.fitzmuseum.cam.ac.uk/api/v1/places/term-109080"
"term-109098","Igney","48.6337,6.8139","48.6337","6.8139","https://data.fitzmuseum.cam.ac.uk/id/terminology/term-109098","https://data.fitzmuseum.cam.ac.uk/api/v1/places/term-109098"
"term-109153","Newmarket","52.2443,0.4066","52.2443","0.4066","https://data.fitzmuseum.cam.ac.uk/id/terminology/term-109153","https://data.fitzmuseum.cam.ac.uk/api/v1/places/term-109153"
"term-109182","Tower of London","51.5081,-0.0762","51.5081","-0.0762","https://data.fitzmuseum.cam.ac.uk/id/terminology/term-109182","https://data.fitzmuseum.cam.ac.uk/api/v1/places/term-109182"
"term-109193","Chesterton","52.2223,0.1446","52.2223","0.1446","https://data.fitzmuseum.cam.ac.uk/id/terminology/term-109193","https://data.fitzmuseum.cam.ac.uk/api/v1/places/term-109193"
"term-109199","Scotland","56.7861,-4.1141","56.7861","-4.1141","https://data.fitzmuseum.cam.ac.uk/id/terminology/term-109199","https://data.fitzmuseum.cam.ac.uk/api/v1/places/term-109199"
"term-109208","Solingen","51.1722,7.0846","51.1722","7.0846","https://data.fitzmuseum.cam.ac.uk/id/terminology/term-109208","https://data.fitzmuseum.cam.ac.uk/api/v1/places/term-109208"
"term-109216","Lewes","50.8746,0.0051","50.8746","0.0051","https://data.fitzmuseum.cam.ac.uk/id/terminology/term-109216","https://data.fitzmuseum.cam.ac.uk/api/v1/places/term-109216"
"term-109226","Pittsburgh","40.4417,-79.9901","40.4417","-79.9901","https://data.fitzmuseum.cam.ac.uk/id/terminology/term-109226","https://data.fitzmuseum.cam.ac.uk/api/v1/places/term-109226"
"term-109227","Baltimore","39.2909,-76.6108","39.2909","-76.6108","https://data.fitzmuseum.cam.ac.uk/id/terminology/term-109227","https://data.fitzmuseum.cam.ac.uk/api/v1/places/term-109227"
"term-109244","Hungary","47.1818,19.5061","47.1818","19.5061","https://data.fitzmuseum.cam.ac.uk/id/terminology/term-109244","https://data.fitzmuseum.cam.ac.uk/api/v1/places/term-109244"
"term-109276","Vancouver","49.2609,-123.114","49.2609","-123.114","https://data.fitzmuseum.cam.ac.uk/id/terminology/term-109276","https://data.fitzmuseum.cam.ac.uk/api/v1/places/term-109276"
"term-109303","Bargi","22.9926,79.8749","22.9926","79.8749","https://data.fitzmuseum.cam.ac.uk/id/terminology/term-109303","https://data.fitzmuseum.cam.ac.uk/api/v1/places/term-109303"
"term-109307","Clifford","47.348,-97.4106","47.348","-97.4106","https://data.fitzmuseum.cam.ac.uk/id/terminology/term-109307","https://data.fitzmuseum.cam.ac.uk/api/v1/places/term-109307"
"term-109325","Hereford","52.0554,-2.7152","52.0554","-2.7152","https://data.fitzmuseum.cam.ac.uk/id/terminology/term-109325","https://data.fitzmuseum.cam.ac.uk/api/v1/places/term-109325"
"term-109327","Hullard Hall Gardens","character(0)","NULL","NULL","https://data.fitzmuseum.cam.ac.uk/id/terminology/term-109327","https://data.fitzmuseum.cam.ac.uk/api/v1/places/term-109327"
"term-109333","Manley Hall","52.9683,-2.968","52.9683","-2.968","https://data.fitzmuseum.cam.ac.uk/id/terminology/term-109333","https://data.fitzmuseum.cam.ac.uk/api/v1/places/term-109333"
"term-109336","Bideford","51.0181,-4.2064","51.0181","-4.2064","https://data.fitzmuseum.cam.ac.uk/id/terminology/term-109336","https://data.fitzmuseum.cam.ac.uk/api/v1/places/term-109336"
"term-109337","Ilfracombe","51.2077,-4.1255","51.2077","-4.1255","https://data.fitzmuseum.cam.ac.uk/id/terminology/term-109337","https://data.fitzmuseum.cam.ac.uk/api/v1/places/term-109337"
"term-109338","Fishguard","51.9938,-4.9768","51.9938","-4.9768","https://data.fitzmuseum.cam.ac.uk/id/terminology/term-109338","https://data.fitzmuseum.cam.ac.uk/api/v1/places/term-109338"
"term-109340","Pembroke","45.8261,-77.1135","45.8261","-77.1135","https://data.fitzmuseum.cam.ac.uk/id/terminology/term-109340","https://data.fitzmuseum.cam.ac.uk/api/v1/places/term-109340"
"term-109341","Neath","51.6628,-3.8039","51.6628","-3.8039","https://data.fitzmuseum.cam.ac.uk/id/terminology/term-109341","https://data.fitzmuseum.cam.ac.uk/api/v1/places/term-109341"
"term-109342","Linton","46.2667,-100.2329","46.2667","-100.2329","https://data.fitzmuseum.cam.ac.uk/id/terminology/term-109342","https://data.fitzmuseum.cam.ac.uk/api/v1/places/term-109342"
"term-109343","Tavistock","50.5496,-4.1446","50.5496","-4.1446","https://data.fitzmuseum.cam.ac.uk/id/terminology/term-109343","https://data.fitzmuseum.cam.ac.uk/api/v1/places/term-109343"
"term-109344","Dartmouth","50.3431,-3.5853","50.3431","-3.5853","https://data.fitzmuseum.cam.ac.uk/id/terminology/term-109344","https://data.fitzmuseum.cam.ac.uk/api/v1/places/term-109344"
"term-109345","Chudleigh","50.6157,-3.5869","50.6157","-3.5869","https://data.fitzmuseum.cam.ac.uk/id/terminology/term-109345","https://data.fitzmuseum.cam.ac.uk/api/v1/places/term-109345"
"term-109346","Shaldon","50.531,-3.5177","50.531","-3.5177","https://data.fitzmuseum.cam.ac.uk/id/terminology/term-109346","https://data.fitzmuseum.cam.ac.uk/api/v1/places/term-109346"
"term-109347","Somerton","52.1465,0.6465","52.1465","0.6465","https://data.fitzmuseum.cam.ac.uk/id/terminology/term-109347","https://data.fitzmuseum.cam.ac.uk/api/v1/places/term-109347"
"term-109348","Mangollen","character(0)","NULL","NULL","https://data.fitzmuseum.cam.ac.uk/id/terminology/term-109348","https://data.fitzmuseum.cam.ac.uk/api/v1/places/term-109348"
"term-109349","Bangor","44.8012,-68.7778","44.8012","-68.7778","https://data.fitzmuseum.cam.ac.uk/id/terminology/term-109349","https://data.fitzmuseum.cam.ac.uk/api/v1/places/term-109349"
"term-109350","Carnarvon","-24.8826,113.6576","-24.8826","113.6576","https://data.fitzmuseum.cam.ac.uk/id/terminology/term-109350","https://data.fitzmuseum.cam.ac.uk/api/v1/places/term-109350"
"term-109351","Aberystwyth","52.4143,-4.0817","52.4143","-4.0817","https://data.fitzmuseum.cam.ac.uk/id/terminology/term-109351","https://data.fitzmuseum.cam.ac.uk/api/v1/places/term-109351"
"term-109357","Nantes","47.2186,-1.5541","47.2186","-1.5541","https://data.fitzmuseum.cam.ac.uk/id/terminology/term-109357","https://data.fitzmuseum.cam.ac.uk/api/v1/places/term-109357"
"term-109358","Loire","45.7539,4.0455","45.7539","4.0455","https://data.fitzmuseum.cam.ac.uk/id/terminology/term-109358","https://data.fitzmuseum.cam.ac.uk/api/v1/places/term-109358"
"term-109359","Saumur","47.2596,-0.0785","47.2596","-0.0785","https://data.fitzmuseum.cam.ac.uk/id/terminology/term-109359","https://data.fitzmuseum.cam.ac.uk/api/v1/places/term-109359"
"term-109361","Nuenen","51.486,5.544","51.486","5.544","https://data.fitzmuseum.cam.ac.uk/id/terminology/term-109361","https://data.fitzmuseum.cam.ac.uk/api/v1/places/term-109361"
"term-109366","Lynn","33.1474,-101.8126","33.1474","-101.8126","https://data.fitzmuseum.cam.ac.uk/id/terminology/term-109366","https://data.fitzmuseum.cam.ac.uk/api/v1/places/term-109366"
"term-109379","Buriton","50.9708,-0.9504","50.9708","-0.9504","https://data.fitzmuseum.cam.ac.uk/id/terminology/term-109379","https://data.fitzmuseum.cam.ac.uk/api/v1/places/term-109379"
"term-109395","Things End","19.2941,-81.1187","19.2941","-81.1187","https://data.fitzmuseum.cam.ac.uk/id/terminology/term-109395","https://data.fitzmuseum.cam.ac.uk/api/v1/places/term-109395"
"term-109414","Cheltenham","51.8996,-2.0712","51.8996","-2.0712","https://data.fitzmuseum.cam.ac.uk/id/terminology/term-109414","https://data.fitzmuseum.cam.ac.uk/api/v1/places/term-109414"
"term-109458","Chiswick","51.4923,-0.2638","51.4923","-0.2638","https://data.fitzmuseum.cam.ac.uk/id/terminology/term-109458","https://data.fitzmuseum.cam.ac.uk/api/v1/places/term-109458"
"term-109464","Orléans","47.9027,1.9086","47.9027","1.9086","https://data.fitzmuseum.cam.ac.uk/id/terminology/term-109464","https://data.fitzmuseum.cam.ac.uk/api/v1/places/term-109464"
"term-109465","Blois","47.5877,1.3338","47.5877","1.3338","https://data.fitzmuseum.cam.ac.uk/id/terminology/term-109465","https://data.fitzmuseum.cam.ac.uk/api/v1/places/term-109465"
"term-109466","Malines","51.0281,4.4803","51.0281","4.4803","https://data.fitzmuseum.cam.ac.uk/id/terminology/term-109466","https://data.fitzmuseum.cam.ac.uk/api/v1/places/term-109466"
"term-109468","Louvain","50.8792,4.7012","50.8792","4.7012","https://data.fitzmuseum.cam.ac.uk/id/terminology/term-109468","https://data.fitzmuseum.cam.ac.uk/api/v1/places/term-109468"
"term-109469","Beaumont","30.086,-94.1018","30.086","-94.1018","https://data.fitzmuseum.cam.ac.uk/id/terminology/term-109469","https://data.fitzmuseum.cam.ac.uk/api/v1/places/term-109469"
"term-109470","Anboisé","character(0)","NULL","NULL","https://data.fitzmuseum.cam.ac.uk/id/terminology/term-109470","https://data.fitzmuseum.cam.ac.uk/api/v1/places/term-109470"
"term-109471","Leyden","43.5469,-75.3603","43.5469","-75.3603","https://data.fitzmuseum.cam.ac.uk/id/terminology/term-109471","https://data.fitzmuseum.cam.ac.uk/api/v1/places/term-109471"
"term-109472","Schevelling","character(0)","NULL","NULL","https://data.fitzmuseum.cam.ac.uk/id/terminology/term-109472","https://data.fitzmuseum.cam.ac.uk/api/v1/places/term-109472"
"term-109474","Le Manes","-20.8953,55.4966","-20.8953","55.4966","https://data.fitzmuseum.cam.ac.uk/id/terminology/term-109474","https://data.fitzmuseum.cam.ac.uk/api/v1/places/term-109474"
"term-109475","Brill","51.8268,-1.0458","51.8268","-1.0458","https://data.fitzmuseum.cam.ac.uk/id/terminology/term-109475","https://data.fitzmuseum.cam.ac.uk/api/v1/places/term-109475"
"term-109477","Kenilworth","42.0895,-87.7149","42.0895","-87.7149","https://data.fitzmuseum.cam.ac.uk/id/terminology/term-109477","https://data.fitzmuseum.cam.ac.uk/api/v1/places/term-109477"
"term-109549","Canterbury","51.28,1.0803","51.28","1.0803","https://data.fitzmuseum.cam.ac.uk/id/terminology/term-109549","https://data.fitzmuseum.cam.ac.uk/api/v1/places/term-109549"
"term-109570","Tamworth","-31.0901,150.929","-31.0901","150.929","https://data.fitzmuseum.cam.ac.uk/id/terminology/term-109570","https://data.fitzmuseum.cam.ac.uk/api/v1/places/term-109570"
"term-109612","Byzantium","41.0092,28.9662","41.0092","28.9662","https://data.fitzmuseum.cam.ac.uk/id/terminology/term-109612","https://data.fitzmuseum.cam.ac.uk/api/v1/places/term-109612"
"term-109615","Exeter","50.7256,-3.5269","50.7256","-3.5269","https://data.fitzmuseum.cam.ac.uk/id/terminology/term-109615","https://data.fitzmuseum.cam.ac.uk/api/v1/places/term-109615"
"term-109616","Cyprus","34.9823,33.1451","34.9823","33.1451","https://data.fitzmuseum.cam.ac.uk/id/terminology/term-109616","https://data.fitzmuseum.cam.ac.uk/api/v1/places/term-109616"
"term-109674","Tintern","51.698,-2.6809","51.698","-2.6809","https://data.fitzmuseum.cam.ac.uk/id/terminology/term-109674","https://data.fitzmuseum.cam.ac.uk/api/v1/places/term-109674"
"term-109748","Reigate","51.2377,-0.2057","51.2377","-0.2057","https://data.fitzmuseum.cam.ac.uk/id/terminology/term-109748","https://data.fitzmuseum.cam.ac.uk/api/v1/places/term-109748"
"term-109750","Blackheath","51.4663,0.0086","51.4663","0.0086","https://data.fitzmuseum.cam.ac.uk/id/terminology/term-109750","https://data.fitzmuseum.cam.ac.uk/api/v1/places/term-109750"
"term-109767","Maidenhead","51.5228,-0.7198","51.5228","-0.7198","https://data.fitzmuseum.cam.ac.uk/id/terminology/term-109767","https://data.fitzmuseum.cam.ac.uk/api/v1/places/term-109767"
"term-109799","Newcastle-upon-Tyne","54.9738,-1.6132","54.9738","-1.6132","https://data.fitzmuseum.cam.ac.uk/id/terminology/term-109799","https://data.fitzmuseum.cam.ac.uk/api/v1/places/term-109799"
"term-109802","Chippenham (Cambs)","52.2905,0.4373","52.2905","0.4373","https://data.fitzmuseum.cam.ac.uk/id/terminology/term-109802","https://data.fitzmuseum.cam.ac.uk/api/v1/places/term-109802"
"term-109813","Nancy","48.6937,6.1834","48.6937","6.1834","https://data.fitzmuseum.cam.ac.uk/id/terminology/term-109813","https://data.fitzmuseum.cam.ac.uk/api/v1/places/term-109813"
"term-109817","Southwark","51.5029,-0.1035","51.5029","-0.1035","https://data.fitzmuseum.cam.ac.uk/id/terminology/term-109817","https://data.fitzmuseum.cam.ac.uk/api/v1/places/term-109817"
"term-109818","Darmstadt","49.8728,8.6512","49.8728","8.6512","https://data.fitzmuseum.cam.ac.uk/id/terminology/term-109818","https://data.fitzmuseum.cam.ac.uk/api/v1/places/term-109818"
"term-109844","Farnham","51.2152,-0.7985","51.2152","-0.7985","https://data.fitzmuseum.cam.ac.uk/id/terminology/term-109844","https://data.fitzmuseum.cam.ac.uk/api/v1/places/term-109844"
"term-109851","Waterford","52.245,-7.1018","52.245","-7.1018","https://data.fitzmuseum.cam.ac.uk/id/terminology/term-109851","https://data.fitzmuseum.cam.ac.uk/api/v1/places/term-109851"
"term-109855","Lucca","44.0178,10.4544","44.0178","10.4544","https://data.fitzmuseum.cam.ac.uk/id/terminology/term-109855","https://data.fitzmuseum.cam.ac.uk/api/v1/places/term-109855"
"term-109858","Newton Abbot","50.5296,-3.6112","50.5296","-3.6112","https://data.fitzmuseum.cam.ac.uk/id/terminology/term-109858","https://data.fitzmuseum.cam.ac.uk/api/v1/places/term-109858"
"term-109860","Nailsea","51.4327,-2.7629","51.4327","-2.7629","https://data.fitzmuseum.cam.ac.uk/id/terminology/term-109860","https://data.fitzmuseum.cam.ac.uk/api/v1/places/term-109860"
"term-109864","Cork","51.8971,-8.4655","51.8971","-8.4655","https://data.fitzmuseum.cam.ac.uk/id/terminology/term-109864","https://data.fitzmuseum.cam.ac.uk/api/v1/places/term-109864"
"term-109875","Stourbridge","52.4578,-2.1474","52.4578","-2.1474","https://data.fitzmuseum.cam.ac.uk/id/terminology/term-109875","https://data.fitzmuseum.cam.ac.uk/api/v1/places/term-109875"
"term-109877","Dudley","52.5111,-2.0817","52.5111","-2.0817","https://data.fitzmuseum.cam.ac.uk/id/terminology/term-109877","https://data.fitzmuseum.cam.ac.uk/api/v1/places/term-109877"
"term-109905","Frome","51.2295,-2.3198","51.2295","-2.3198","https://data.fitzmuseum.cam.ac.uk/id/terminology/term-109905","https://data.fitzmuseum.cam.ac.uk/api/v1/places/term-109905"
"term-109937","Nevers","46.9877,3.1577","46.9877","3.1577","https://data.fitzmuseum.cam.ac.uk/id/terminology/term-109937","https://data.fitzmuseum.cam.ac.uk/api/v1/places/term-109937"
"term-109943","Daum Frères","48.6979,6.1917","48.6979","6.1917","https://data.fitzmuseum.cam.ac.uk/id/terminology/term-109943","https://data.fitzmuseum.cam.ac.uk/api/v1/places/term-109943"
"term-109945","Wingén-sur-Moder","48.9276,7.3731","48.9276","7.3731","https://data.fitzmuseum.cam.ac.uk/id/terminology/term-109945","https://data.fitzmuseum.cam.ac.uk/api/v1/places/term-109945"
"term-109947","Luzern","47.0505,8.3055","47.0505","8.3055","https://data.fitzmuseum.cam.ac.uk/id/terminology/term-109947","https://data.fitzmuseum.cam.ac.uk/api/v1/places/term-109947"
"term-109949","Finland","63.2468,25.9209","63.2468","25.9209","https://data.fitzmuseum.cam.ac.uk/id/terminology/term-109949","https://data.fitzmuseum.cam.ac.uk/api/v1/places/term-109949"
"term-109954","Potsdam","52.4009,13.0591","52.4009","13.0591","https://data.fitzmuseum.cam.ac.uk/id/terminology/term-109954","https://data.fitzmuseum.cam.ac.uk/api/v1/places/term-109954"
"term-109969","Sydney","-33.8698,151.2083","-33.8698","151.2083","https://data.fitzmuseum.cam.ac.uk/id/terminology/term-109969","https://data.fitzmuseum.cam.ac.uk/api/v1/places/term-109969"
"term-109971","Panama","8.5596,-81.1308","8.5596","-81.1308","https://data.fitzmuseum.cam.ac.uk/id/terminology/term-109971","https://data.fitzmuseum.cam.ac.uk/api/v1/places/term-109971"
"term-109973","Rostock","54.0924,12.1286","54.0924","12.1286","https://data.fitzmuseum.cam.ac.uk/id/terminology/term-109973","https://data.fitzmuseum.cam.ac.uk/api/v1/places/term-109973"
"term-109975","Burlington","44.4762,-73.2129","44.4762","-73.2129","https://data.fitzmuseum.cam.ac.uk/id/terminology/term-109975","https://data.fitzmuseum.cam.ac.uk/api/v1/places/term-109975"
"term-109979","Reichenau","47.6956,9.0592","47.6956","9.0592","https://data.fitzmuseum.cam.ac.uk/id/terminology/term-109979","https://data.fitzmuseum.cam.ac.uk/api/v1/places/term-109979"
"term-109995","Basel","47.5581,7.5878","47.5581","7.5878","https://data.fitzmuseum.cam.ac.uk/id/terminology/term-109995","https://data.fitzmuseum.cam.ac.uk/api/v1/places/term-109995"
"term-110003","Penn","51.6348,-0.6656","51.6348","-0.6656","https://data.fitzmuseum.cam.ac.uk/id/terminology/term-110003","https://data.fitzmuseum.cam.ac.uk/api/v1/places/term-110003"
"term-110008","Nazzano","42.2293,12.5976","42.2293","12.5976","https://data.fitzmuseum.cam.ac.uk/id/terminology/term-110008","https://data.fitzmuseum.cam.ac.uk/api/v1/places/term-110008"
"term-110016","Dartington","50.4437,-3.7201","50.4437","-3.7201","https://data.fitzmuseum.cam.ac.uk/id/terminology/term-110016","https://data.fitzmuseum.cam.ac.uk/api/v1/places/term-110016"
"term-110023","East Anglia","50.9089,-1.4028","50.9089","-1.4028","https://data.fitzmuseum.cam.ac.uk/id/terminology/term-110023","https://data.fitzmuseum.cam.ac.uk/api/v1/places/term-110023"
"term-110026","Dortmund","51.5142,7.4653","51.5142","7.4653","https://data.fitzmuseum.cam.ac.uk/id/terminology/term-110026","https://data.fitzmuseum.cam.ac.uk/api/v1/places/term-110026"
"term-110028","eye","52.3226,1.1464","52.3226","1.1464","https://data.fitzmuseum.cam.ac.uk/id/terminology/term-110028","https://data.fitzmuseum.cam.ac.uk/api/v1/places/term-110028"
"term-110034","Great Baddow","51.7157,0.5","51.7157","0.5","https://data.fitzmuseum.cam.ac.uk/id/terminology/term-110034","https://data.fitzmuseum.cam.ac.uk/api/v1/places/term-110034"
"term-110036","Holmfirth","53.5704,-1.787","53.5704","-1.787","https://data.fitzmuseum.cam.ac.uk/id/terminology/term-110036","https://data.fitzmuseum.cam.ac.uk/api/v1/places/term-110036"
"term-110039","Wingham","43.8862,-81.3127","43.8862","-81.3127","https://data.fitzmuseum.cam.ac.uk/id/terminology/term-110039","https://data.fitzmuseum.cam.ac.uk/api/v1/places/term-110039"
"term-110043","Vauxhall","51.4875,-0.1229","51.4875","-0.1229","https://data.fitzmuseum.cam.ac.uk/id/terminology/term-110043","https://data.fitzmuseum.cam.ac.uk/api/v1/places/term-110043"
"term-110045","Tunstall","53.0621,-2.2141","53.0621","-2.2141","https://data.fitzmuseum.cam.ac.uk/id/terminology/term-110045","https://data.fitzmuseum.cam.ac.uk/api/v1/places/term-110045"
"term-110048","Little Baddow","51.7389,0.5585","51.7389","0.5585","https://data.fitzmuseum.cam.ac.uk/id/terminology/term-110048","https://data.fitzmuseum.cam.ac.uk/api/v1/places/term-110048"
"term-110060","Bridport","50.7267,-2.7577","50.7267","-2.7577","https://data.fitzmuseum.cam.ac.uk/id/terminology/term-110060","https://data.fitzmuseum.cam.ac.uk/api/v1/places/term-110060"
"term-110061","Cairo","30.0444,31.2357","30.0444","31.2357","https://data.fitzmuseum.cam.ac.uk/id/terminology/term-110061","https://data.fitzmuseum.cam.ac.uk/api/v1/places/term-110061"
"term-110067","Nailsworth","51.6955,-2.2272","51.6955","-2.2272","https://data.fitzmuseum.cam.ac.uk/id/terminology/term-110067","https://data.fitzmuseum.cam.ac.uk/api/v1/places/term-110067"
"term-110090","Tottenham","51.5977,-0.0673","51.5977","-0.0673","https://data.fitzmuseum.cam.ac.uk/id/terminology/term-110090","https://data.fitzmuseum.cam.ac.uk/api/v1/places/term-110090"
"term-110094","Treviso","45.8067,12.2063","45.8067","12.2063","https://data.fitzmuseum.cam.ac.uk/id/terminology/term-110094","https://data.fitzmuseum.cam.ac.uk/api/v1/places/term-110094"
"term-110111","Moscow","55.7504,37.6175","55.7504","37.6175","https://data.fitzmuseum.cam.ac.uk/id/terminology/term-110111","https://data.fitzmuseum.cam.ac.uk/api/v1/places/term-110111"
"term-110112","Ryde","50.73,-1.1604","50.73","-1.1604","https://data.fitzmuseum.cam.ac.uk/id/terminology/term-110112","https://data.fitzmuseum.cam.ac.uk/api/v1/places/term-110112"
"term-110117","Attina","-19.8747,47.0338","-19.8747","47.0338","https://data.fitzmuseum.cam.ac.uk/id/terminology/term-110117","https://data.fitzmuseum.cam.ac.uk/api/v1/places/term-110117"
"term-110121","New Hall","52.2141,0.1078","52.2141","0.1078","https://data.fitzmuseum.cam.ac.uk/id/terminology/term-110121","https://data.fitzmuseum.cam.ac.uk/api/v1/places/term-110121"
"term-110128","Ulm","48.3974,9.9934","48.3974","9.9934","https://data.fitzmuseum.cam.ac.uk/id/terminology/term-110128","https://data.fitzmuseum.cam.ac.uk/api/v1/places/term-110128"
"term-110155","Bremen","53.0758,8.8072","53.0758","8.8072","https://data.fitzmuseum.cam.ac.uk/id/terminology/term-110155","https://data.fitzmuseum.cam.ac.uk/api/v1/places/term-110155"
"term-110159","Lancaster","40.0381,-76.3057","40.0381","-76.3057","https://data.fitzmuseum.cam.ac.uk/id/terminology/term-110159","https://data.fitzmuseum.cam.ac.uk/api/v1/places/term-110159"
"term-110175","St. Claude","46.4095,5.9018","46.4095","5.9018","https://data.fitzmuseum.cam.ac.uk/id/terminology/term-110175","https://data.fitzmuseum.cam.ac.uk/api/v1/places/term-110175"
"term-110178","Paderborn","51.719,8.7649","51.719","8.7649","https://data.fitzmuseum.cam.ac.uk/id/terminology/term-110178","https://data.fitzmuseum.cam.ac.uk/api/v1/places/term-110178"
"term-110203","Jordan","31.1667,36.9416","31.1667","36.9416","https://data.fitzmuseum.cam.ac.uk/id/terminology/term-110203","https://data.fitzmuseum.cam.ac.uk/api/v1/places/term-110203"
"term-110206","Harstad","68.9297,16.5209","68.9297","16.5209","https://data.fitzmuseum.cam.ac.uk/id/terminology/term-110206","https://data.fitzmuseum.cam.ac.uk/api/v1/places/term-110206"
"term-110238","Ravenna","44.3641,12.059","44.3641","12.059","https://data.fitzmuseum.cam.ac.uk/id/terminology/term-110238","https://data.fitzmuseum.cam.ac.uk/api/v1/places/term-110238"
"term-110239","various","-7.0683,-34.8447","-7.0683","-34.8447","https://data.fitzmuseum.cam.ac.uk/id/terminology/term-110239","https://data.fitzmuseum.cam.ac.uk/api/v1/places/term-110239"
"term-110245","Newport (Hants)","44.9633,-64.0569","44.9633","-64.0569","https://data.fitzmuseum.cam.ac.uk/id/terminology/term-110245","https://data.fitzmuseum.cam.ac.uk/api/v1/places/term-110245"
"term-110248","Worcester","42.2626,-71.8019","42.2626","-71.8019","https://data.fitzmuseum.cam.ac.uk/id/terminology/term-110248","https://data.fitzmuseum.cam.ac.uk/api/v1/places/term-110248"
"term-110251","Alta","55.0013,-115.0021","55.0013","-115.0021","https://data.fitzmuseum.cam.ac.uk/id/terminology/term-110251","https://data.fitzmuseum.cam.ac.uk/api/v1/places/term-110251"
"term-110253","Vereux","47.5208,5.6513","47.5208","5.6513","https://data.fitzmuseum.cam.ac.uk/id/terminology/term-110253","https://data.fitzmuseum.cam.ac.uk/api/v1/places/term-110253"
"term-110281","Atlanta","33.749,-84.3903","33.749","-84.3903","https://data.fitzmuseum.cam.ac.uk/id/terminology/term-110281","https://data.fitzmuseum.cam.ac.uk/api/v1/places/term-110281"
"term-110283","Wolverhampton","52.5848,-2.1276","52.5848","-2.1276","https://data.fitzmuseum.cam.ac.uk/id/terminology/term-110283","https://data.fitzmuseum.cam.ac.uk/api/v1/places/term-110283"
"term-110284","Coventry","52.4082,-1.5105","52.4082","-1.5105","https://data.fitzmuseum.cam.ac.uk/id/terminology/term-110284","https://data.fitzmuseum.cam.ac.uk/api/v1/places/term-110284"
"term-110300","Bombay","19.0785,72.8782","19.0785","72.8782","https://data.fitzmuseum.cam.ac.uk/id/terminology/term-110300","https://data.fitzmuseum.cam.ac.uk/api/v1/places/term-110300"
"term-110301","Kendal","54.329,-2.7472","54.329","-2.7472","https://data.fitzmuseum.cam.ac.uk/id/terminology/term-110301","https://data.fitzmuseum.cam.ac.uk/api/v1/places/term-110301"
"term-110328","Aldermaston","51.3827,-1.1518","51.3827","-1.1518","https://data.fitzmuseum.cam.ac.uk/id/terminology/term-110328","https://data.fitzmuseum.cam.ac.uk/api/v1/places/term-110328"
"term-110336","Murshidabad","24.1746,88.2721","24.1746","88.2721","https://data.fitzmuseum.cam.ac.uk/id/terminology/term-110336","https://data.fitzmuseum.cam.ac.uk/api/v1/places/term-110336"
"term-110347","St. Albans","51.7493,-0.3423","51.7493","-0.3423","https://data.fitzmuseum.cam.ac.uk/id/terminology/term-110347","https://data.fitzmuseum.cam.ac.uk/api/v1/places/term-110347"
"term-110384","Limehouse","51.5129,-0.039","51.5129","-0.039","https://data.fitzmuseum.cam.ac.uk/id/terminology/term-110384","https://data.fitzmuseum.cam.ac.uk/api/v1/places/term-110384"
"term-110387","Trent","46.0664,11.1258","46.0664","11.1258","https://data.fitzmuseum.cam.ac.uk/id/terminology/term-110387","https://data.fitzmuseum.cam.ac.uk/api/v1/places/term-110387"
"term-110389","Longton Hall","53.7285,-2.7814","53.7285","-2.7814","https://data.fitzmuseum.cam.ac.uk/id/terminology/term-110389","https://data.fitzmuseum.cam.ac.uk/api/v1/places/term-110389"
"term-110394","West Pans","51.3451,-1.9887","51.3451","-1.9887","https://data.fitzmuseum.cam.ac.uk/id/terminology/term-110394","https://data.fitzmuseum.cam.ac.uk/api/v1/places/term-110394"
"term-110400","Beaminster","50.8098,-2.7393","50.8098","-2.7393","https://data.fitzmuseum.cam.ac.uk/id/terminology/term-110400","https://data.fitzmuseum.cam.ac.uk/api/v1/places/term-110400"
"term-110403","Hatfield Peveril","character(0)","NULL","NULL","https://data.fitzmuseum.cam.ac.uk/id/terminology/term-110403","https://data.fitzmuseum.cam.ac.uk/api/v1/places/term-110403"
"term-110405","Frankenthal","49.5446,8.354","49.5446","8.354","https://data.fitzmuseum.cam.ac.uk/id/terminology/term-110405","https://data.fitzmuseum.cam.ac.uk/api/v1/places/term-110405"
"term-110407","Höchst-am-Main","50.0995,8.5453","50.0995","8.5453","https://data.fitzmuseum.cam.ac.uk/id/terminology/term-110407","https://data.fitzmuseum.cam.ac.uk/api/v1/places/term-110407"
"term-110409","Meissen","51.1631,13.4705","51.1631","13.4705","https://data.fitzmuseum.cam.ac.uk/id/terminology/term-110409","https://data.fitzmuseum.cam.ac.uk/api/v1/places/term-110409"
"term-110411","Nymphenburg","48.1571,11.5097","48.1571","11.5097","https://data.fitzmuseum.cam.ac.uk/id/terminology/term-110411","https://data.fitzmuseum.cam.ac.uk/api/v1/places/term-110411"
"term-110418","Longton","37.3778,-96.0808","37.3778","-96.0808","https://data.fitzmuseum.cam.ac.uk/id/terminology/term-110418","https://data.fitzmuseum.cam.ac.uk/api/v1/places/term-110418"
"term-110443","Hanley","53.026,-2.1754","53.026","-2.1754","https://data.fitzmuseum.cam.ac.uk/id/terminology/term-110443","https://data.fitzmuseum.cam.ac.uk/api/v1/places/term-110443"
"term-110450","Nantgarw","51.5621,-3.2637","51.5621","-3.2637","https://data.fitzmuseum.cam.ac.uk/id/terminology/term-110450","https://data.fitzmuseum.cam.ac.uk/api/v1/places/term-110450"
"term-110453","Pinxton","53.0949,-1.3242","53.0949","-1.3242","https://data.fitzmuseum.cam.ac.uk/id/terminology/term-110453","https://data.fitzmuseum.cam.ac.uk/api/v1/places/term-110453"
"term-110454","Newport (Monmouths.)","character(0)","NULL","NULL","https://data.fitzmuseum.cam.ac.uk/id/terminology/term-110454","https://data.fitzmuseum.cam.ac.uk/api/v1/places/term-110454"
"term-110455","Stoke-on-Trent","53.0162,-2.1813","53.0162","-2.1813","https://data.fitzmuseum.cam.ac.uk/id/terminology/term-110455","https://data.fitzmuseum.cam.ac.uk/api/v1/places/term-110455"
"term-110457","Swinton","55.8556,-4.1036","55.8556","-4.1036","https://data.fitzmuseum.cam.ac.uk/id/terminology/term-110457","https://data.fitzmuseum.cam.ac.uk/api/v1/places/term-110457"
"term-110464","Sacramento","38.5811,-121.4939","38.5811","-121.4939","https://data.fitzmuseum.cam.ac.uk/id/terminology/term-110464","https://data.fitzmuseum.cam.ac.uk/api/v1/places/term-110464"
"term-110479","Cowbridge","51.4618,-3.4472","51.4618","-3.4472","https://data.fitzmuseum.cam.ac.uk/id/terminology/term-110479","https://data.fitzmuseum.cam.ac.uk/api/v1/places/term-110479"
"term-110480","Rotherham","53.431,-1.3552","53.431","-1.3552","https://data.fitzmuseum.cam.ac.uk/id/terminology/term-110480","https://data.fitzmuseum.cam.ac.uk/api/v1/places/term-110480"
"term-110489","Fribourg","46.6789,7.1027","46.6789","7.1027","https://data.fitzmuseum.cam.ac.uk/id/terminology/term-110489","https://data.fitzmuseum.cam.ac.uk/api/v1/places/term-110489"
"term-110490","Stratford-le-Bow","character(0)","NULL","NULL","https://data.fitzmuseum.cam.ac.uk/id/terminology/term-110490","https://data.fitzmuseum.cam.ac.uk/api/v1/places/term-110490"
"term-110521","Derby","52.9213,-1.4761","52.9213","-1.4761","https://data.fitzmuseum.cam.ac.uk/id/terminology/term-110521","https://data.fitzmuseum.cam.ac.uk/api/v1/places/term-110521"
"term-110537","Marple","53.393,-2.0693","53.393","-2.0693","https://data.fitzmuseum.cam.ac.uk/id/terminology/term-110537","https://data.fitzmuseum.cam.ac.uk/api/v1/places/term-110537"
"term-110538","Saffron Waldon","character(0)","NULL","NULL","https://data.fitzmuseum.cam.ac.uk/id/terminology/term-110538","https://data.fitzmuseum.cam.ac.uk/api/v1/places/term-110538"
"term-110539","Stirling","56.1181,-3.936","56.1181","-3.936","https://data.fitzmuseum.cam.ac.uk/id/terminology/term-110539","https://data.fitzmuseum.cam.ac.uk/api/v1/places/term-110539"
"term-110540","Berkhamsted","51.7551,-0.5558","51.7551","-0.5558","https://data.fitzmuseum.cam.ac.uk/id/terminology/term-110540","https://data.fitzmuseum.cam.ac.uk/api/v1/places/term-110540"
"term-110550","Bordighera","43.7851,7.6591","43.7851","7.6591","https://data.fitzmuseum.cam.ac.uk/id/terminology/term-110550","https://data.fitzmuseum.cam.ac.uk/api/v1/places/term-110550"
"term-110551","Chorleywood","51.6542,-0.5184","51.6542","-0.5184","https://data.fitzmuseum.cam.ac.uk/id/terminology/term-110551","https://data.fitzmuseum.cam.ac.uk/api/v1/places/term-110551"
"term-110552","Barnton","53.2717,-2.5496","53.2717","-2.5496","https://data.fitzmuseum.cam.ac.uk/id/terminology/term-110552","https://data.fitzmuseum.cam.ac.uk/api/v1/places/term-110552"
"term-110553","Stockport","53.4079,-2.1602","53.4079","-2.1602","https://data.fitzmuseum.cam.ac.uk/id/terminology/term-110553","https://data.fitzmuseum.cam.ac.uk/api/v1/places/term-110553"
"term-110555","Talavera","41.5823,1.3391","41.5823","1.3391","https://data.fitzmuseum.cam.ac.uk/id/terminology/term-110555","https://data.fitzmuseum.cam.ac.uk/api/v1/places/term-110555"
"term-110563","Storey's Way","52.2145,0.1034","52.2145","0.1034","https://data.fitzmuseum.cam.ac.uk/id/terminology/term-110563","https://data.fitzmuseum.cam.ac.uk/api/v1/places/term-110563"
"term-110567","Georgia (U.S.A.)","character(0)","NULL","NULL","https://data.fitzmuseum.cam.ac.uk/id/terminology/term-110567","https://data.fitzmuseum.cam.ac.uk/api/v1/places/term-110567"
"term-110570","Newton Stewart","54.959,-4.4837","54.959","-4.4837","https://data.fitzmuseum.cam.ac.uk/id/terminology/term-110570","https://data.fitzmuseum.cam.ac.uk/api/v1/places/term-110570"
"term-110573","Henley-on-Thames","51.5376,-0.905","51.5376","-0.905","https://data.fitzmuseum.cam.ac.uk/id/terminology/term-110573","https://data.fitzmuseum.cam.ac.uk/api/v1/places/term-110573"
"term-110579","Weybourne","52.9372,1.1478","52.9372","1.1478","https://data.fitzmuseum.cam.ac.uk/id/terminology/term-110579","https://data.fitzmuseum.cam.ac.uk/api/v1/places/term-110579"
"term-110598","Bloomsbury","51.5211,-0.129","51.5211","-0.129","https://data.fitzmuseum.cam.ac.uk/id/terminology/term-110598","https://data.fitzmuseum.cam.ac.uk/api/v1/places/term-110598"
"term-110601","Luxembourg","49.8159,6.1297","49.8159","6.1297","https://data.fitzmuseum.cam.ac.uk/id/terminology/term-110601","https://data.fitzmuseum.cam.ac.uk/api/v1/places/term-110601"
"term-110612","Lyme Regis","50.7361,-2.9317","50.7361","-2.9317","https://data.fitzmuseum.cam.ac.uk/id/terminology/term-110612","https://data.fitzmuseum.cam.ac.uk/api/v1/places/term-110612"
"term-110633","Nijmegen","51.8426,5.839","51.8426","5.839","https://data.fitzmuseum.cam.ac.uk/id/terminology/term-110633","https://data.fitzmuseum.cam.ac.uk/api/v1/places/term-110633"
"term-110640","Singapore","1.3571,103.8195","1.3571","103.8195","https://data.fitzmuseum.cam.ac.uk/id/terminology/term-110640","https://data.fitzmuseum.cam.ac.uk/api/v1/places/term-110640"
"term-110642","Slough","51.5111,-0.5941","51.5111","-0.5941","https://data.fitzmuseum.cam.ac.uk/id/terminology/term-110642","https://data.fitzmuseum.cam.ac.uk/api/v1/places/term-110642"
"term-110649","Hertford","51.7957,-0.0785","51.7957","-0.0785","https://data.fitzmuseum.cam.ac.uk/id/terminology/term-110649","https://data.fitzmuseum.cam.ac.uk/api/v1/places/term-110649"
"term-110656","Tel Aviv","32.0853,34.7818","32.0853","34.7818","https://data.fitzmuseum.cam.ac.uk/id/terminology/term-110656","https://data.fitzmuseum.cam.ac.uk/api/v1/places/term-110656"
"term-110658","Argyll","-23.2534,147.5442","-23.2534","147.5442","https://data.fitzmuseum.cam.ac.uk/id/terminology/term-110658","https://data.fitzmuseum.cam.ac.uk/api/v1/places/term-110658"
"term-110666","Bonn","50.7359,7.1007","50.7359","7.1007","https://data.fitzmuseum.cam.ac.uk/id/terminology/term-110666","https://data.fitzmuseum.cam.ac.uk/api/v1/places/term-110666"
"term-110675","Haarlem","52.3837,4.6436","52.3837","4.6436","https://data.fitzmuseum.cam.ac.uk/id/terminology/term-110675","https://data.fitzmuseum.cam.ac.uk/api/v1/places/term-110675"
"term-110676","Northampton","52.2343,-0.9028","52.2343","-0.9028","https://data.fitzmuseum.cam.ac.uk/id/terminology/term-110676","https://data.fitzmuseum.cam.ac.uk/api/v1/places/term-110676"
"term-110678","Hammersmith","51.492,-0.2236","51.492","-0.2236","https://data.fitzmuseum.cam.ac.uk/id/terminology/term-110678","https://data.fitzmuseum.cam.ac.uk/api/v1/places/term-110678"
"term-110679","Bridlington","54.0871,-0.1965","54.0871","-0.1965","https://data.fitzmuseum.cam.ac.uk/id/terminology/term-110679","https://data.fitzmuseum.cam.ac.uk/api/v1/places/term-110679"
"term-110680","Cannes","43.5515,7.0134","43.5515","7.0134","https://data.fitzmuseum.cam.ac.uk/id/terminology/term-110680","https://data.fitzmuseum.cam.ac.uk/api/v1/places/term-110680"
"term-110681","Harmondsworth","51.4889,-0.4755","51.4889","-0.4755","https://data.fitzmuseum.cam.ac.uk/id/terminology/term-110681","https://data.fitzmuseum.cam.ac.uk/api/v1/places/term-110681"
"term-110698","Modena","44.5385,10.936","44.5385","10.936","https://data.fitzmuseum.cam.ac.uk/id/terminology/term-110698","https://data.fitzmuseum.cam.ac.uk/api/v1/places/term-110698"
